"","screenName","location","latitude","longitude","state"
"1","joslynn_padilla","Odessa, TX",31.8456816,-102.3676431,"Texas"
"2","vindicatedlich","Houston, TX",29.7604267,-95.3698028,"Texas"
"5","stichomancery","Florida, USA",27.6648274,-81.5157535,"Florida"
"6","Surge_Yo","Denver, Co - El Paso, Tx",31.7735978,-106.4664648,"Texas"
"7","taiylor_laree","hogwarts",28.4722475,-81.4736377,"Florida"
"10","Revz_OW","Colorado, USA",39.5500507,-105.7820674,"Colorado"
"11","AMARichmond","Richmond, VA",37.5407246,-77.4360481,"Virginia"
"13","WordsworthGwary","Room 101",33.6567432,-111.9323009,"Arizona"
"18","medeecine","black lives matter",33.7614059,-84.3880318,"Georgia"
"20","_cozykaplan_","Rhode Island",41.5800945,-71.4774291,"Rhode Island"
"23","ReubenJHenshaw","Hyrule ",41.5153904,-87.356455,"Indiana"
"26","RobertReed003","Shenandoah Valley VA",38.4834568,-78.8497485,"Virginia"
"29","hwisaek","DM. OC. KRP. AOCNET. 0101 <U+0001F33B>",33.7174708,-117.8311428,"California"
"30","Lindyy_Lu","Coolin it in Texas <U+0001F1E8><U+0001F1F1>",31.9685988,-99.9018131,"Texas"
"31","__fc","Somerville, MA",42.3875968,-71.0994968,"Massachusetts"
"33","peebanjay","Chicago, IL",41.8781136,-87.6297982,"Illinois"
"34","_IcedSweetKee","Texas, USA",31.9685988,-99.9018131,"Texas"
"35","PredPleb","Nowhere",40.7317696,-73.9841161,"New York"
"39","SeanKrummel","Burbank, Ca.",34.1808392,-118.3089661,"California"
"43","GregoryEllner","New York, NY",40.7127753,-74.0059728,"New York"
"44","LiamPagex","Lost",36.834603,-94.6171303,"Missouri"
"46","thejasminemaria","Madison, WI",43.0730517,-89.4012302,"Wisconsin"
"50","Maxiine_dee","••Far Far away••",43.177883,-73.055672,"Vermont"
"53","_jeszsell","Venus",30.2851533,-81.5138602,"Florida"
"56","dianakelly","New York, NY",40.7127753,-74.0059728,"New York"
"58","TajSupreme","PG",35.976288,-94.316978,"Arkansas"
"60","katyhagelin","Washington, USA",47.7510741,-120.7401385,"Washington"
"62","moannabelle","ph",36.1498952,-96.0055776,"Oklahoma"
"68","josh_pancubit","C.J.M",38.6208449,-90.218875,"Missouri"
"69","Namteerah","Valhalla ",40.7659887,-73.9874078,"New York"
"70","bloodedline","nicole king",41.722532,-87.59057,"Illinois"
"74","andrewMI2018","On Lake Michigan",44.3148443,-85.6023643,"Michigan"
"77","_jjaeee","New Jersey, USA",40.0583238,-74.4056612,"New Jersey"
"78","bluberi_sakura","PH",36.1498952,-96.0055776,"Oklahoma"
"79","Pretty__Porsha","FL",27.6648274,-81.5157535,"Florida"
"82","unfilteredmomat","Michigan, USA",44.3148443,-85.6023643,"Michigan"
"83","BossLadyK89","Roc NewYork",40.7456231,-73.9939519,"New York"
"85","Krissssssy1","Georgetown, SC",33.376834,-79.2944964,"South Carolina"
"87","SpaceGhostJSR","Ghost Planet",33.7838234,-84.3923948,"Georgia"
"88","ClairePfeiffer","Hell ",42.43472,-83.985,"Michigan"
"94","Keyairaaax","Maryland, USA",39.0457549,-76.6412712,"Maryland"
"96","PrettyGirlQui_","Atlanta, GA",33.7489954,-84.3879824,"Georgia"
"97","PrettyBrnBrn","Austin,tx",30.267153,-97.7430608,"Texas"
"98","gpapiiii","Durham, NC",35.9940329,-78.898619,"North Carolina"
"99","paradisalpjm","Brooklyn, NY",40.6781784,-73.9441579,"New York"
"103","jasortiz_","South Central",37.720682,-97.137069,"Kansas"
"104","JackyGuzman22","Dallas, Tx",32.7766642,-96.7969879,"Texas"
"106","YOGLinny_","North Philadelphia",40.0145387,-75.1311264,"Pennsylvania"
"107","poetnextdoor","757",36.1039955,-80.2414543,"North Carolina"
"109","_iCOMPLETEyou","MississippiStateUniversity<U+2764><U+FE0F>",33.4551742,-88.7943766,"Mississippi"
"111","aBikeDada","Wakanda",44.9030233,-91.920983,"Wisconsin"
"112","natalieefh","tx ",31.9685988,-99.9018131,"Texas"
"113","victoriiuh_","New York",40.7127753,-74.0059728,"New York"
"114","Too_Sadiddy","Pensacola Fl ",30.421309,-87.2169149,"Florida"
"116","j4thehofit","Beverly, MA",42.5584283,-70.880049,"Massachusetts"
"120","ahsheadache","Mount Royal, NJ",39.8099873,-75.2117904,"New Jersey"
"122","canicuIa","li | they/she | <U+0001F1FA><U+0001F1F8><U+2192><U+0001F1EF><U+0001F1F5>",40.789142,-73.134961,"New York"
"123","KatileeTuron","New York, USA",40.7127753,-74.0059728,"New York"
"125","known_as_kelly","Tampa, FL",27.950575,-82.4571776,"Florida"
"126","Vayaa04","Wilmington Manor, DE",39.6867795,-75.5843694,"Delaware"
"128","alvarez_jenni12","Salem, OR",44.9428975,-123.0350963,"Oregon"
"130","Kbarge60","New York, USA",40.7127753,-74.0059728,"New York"
"135","cat_asstrophe","queer city, houston",29.7480122,-95.3895175,"Texas"
"138","_egii_","Brooklyn Bred*",40.6781784,-73.9441579,"New York"
"140","xooropa","Earth",37.2321077,-95.7243335,"Kansas"
"142","Chewyah_","Maryland, USA",39.0457549,-76.6412712,"Maryland"
"144","liprap","Outside NW H-town",29.844659,-95.501748,"Texas"
"145","MeltyFishSticks","West Jordan, UT",40.6096698,-111.9391031,"Utah"
"148","_itsMorganG","VA",36.103255,-95.8716018,"Oklahoma"
"150","missmindylouwho","Denver, CO",39.7392358,-104.990251,"Colorado"
"153","_cartreal","Tally/MS",31.9798472,-89.2855615,"Mississippi"
"154","BethR_27516","North Carolina,  USA",35.7595731,-79.0192997,"North Carolina"
"159","perezlpaola","Arizona, USA",34.0489281,-111.0937311,"Arizona"
"160","G12Warped","Pittsburg, TX",32.9954021,-94.9657688,"Texas"
"161","templarian","Chicago, IL",41.8781136,-87.6297982,"Illinois"
"162","alancarawan","The Happy Hunting Grounds",39.7698412,-120.6197372,"California"
"163","douxorage","stress",37.5417441,-94.7125767,"Kansas"
"164","jalexx07","Costa Mesa, CA",33.6412156,-117.9188221,"California"
"165","ace_remus","Michigan, USA",44.3148443,-85.6023643,"Michigan"
"167","PengBoizArmani","Top Of The World!*",36.1473882,-115.1558325,"Nevada"
"169","BEE_Modee","Southfield, MI",42.4733688,-83.2218731,"Michigan"
"171","HotlantaF30","Des Moines, WA",47.4017661,-122.3242901,"Washington"
"172","onlyDyouneed","California, USA",36.778261,-119.4179324,"California"
"177","JMorantensen","Toledo, OH",41.6528052,-83.5378674,"Ohio"
"178","blancasantanaa","Philly",39.9525839,-75.1652215,"Pennsylvania"
"179","tallygonzalez15","Georgia, USA",32.1656221,-82.9000751,"Georgia"
"180","Mpesce68","Delaware",38.9108325,-75.5276699,"Delaware"
"182","auntieentropy","New England",43.9653889,-70.8226541,"Maine"
"183","BrazyBry","Orlando, FL",28.5383355,-81.3792365,"Florida"
"184","ginger621853","GeorgiaMurry Co.U. S. A .",34.7928029,-84.7315563,"Georgia"
"185","YPvisual","Boston, MA",42.3600825,-71.0588801,"Massachusetts"
"186","Samajaani","North Carolina, USA",35.7595731,-79.0192997,"North Carolina"
"187","DjHeadacheHD","NYC, INT'L ",40.7638838,-73.9893426,"New York"
"189","Lollardfish","Twin Cities",44.9374831,-93.2009998,"Minnesota"
"190","jcteaman","Des Moines,  IA",41.5868353,-93.6249593,"Iowa"
"191","AwhHellNaw","Southeast Arkansas",34.2097705,-92.0266302,"Arkansas"
"193","Sammy_shv","REV",37.7901883,-122.4038935,"California"
"194","WESTBROOK_","VA<U+2708><U+FE0F>TX",37.4315734,-78.6568942,"Virginia"
"197","WKYT","Lexington, KY",38.0405837,-84.5037164,"Kentucky"
"198","Segun_temi","Pensacola, FL",30.421309,-87.2169149,"Florida"
"199","annelieseriosss","Las Vegas, NV",36.1699412,-115.1398296,"Nevada"
"201","ccmedotcom_","Mississippi ",32.3546679,-89.3985283,"Mississippi"
"203","XanaduMusings","Virginia, USA",37.4315734,-78.6568942,"Virginia"
"204","as_a_deer","California, USA",36.778261,-119.4179324,"California"
"207","you_so_funnie","Boston, MA <U+2728> ||| Temple '19 <U+0001F352>",42.3552172,-71.0624748,"Massachusetts"
"208","whoaitssarahh","New Jersey, USA",40.0583238,-74.4056612,"New Jersey"
"211","joshuarayflores","Donna, TX/ Austin, Tx",30.2766563,-97.7404199,"Texas"
"212","LikeVenomForU","New York, USA",40.7127753,-74.0059728,"New York"
"213","cherylgovan","Yorkshire",42.5300624,-78.4727976,"New York"
"215","uhhthinn","gw:120",35.415901,-80.604649,"North Carolina"
"220","shmugsey_","San Antonio, TX",29.4241219,-98.4936282,"Texas"
"221","Viviamazin","Dallas, TX",32.7766642,-96.7969879,"Texas"
"224","Draggg_","Green Bay, WI",44.5133188,-88.0132958,"Wisconsin"
"227","MarcyRmrz","Tucson, AZ",32.2226066,-110.9747108,"Arizona"
"231","CoachBPeters","Norman, OK",35.2225668,-97.4394777,"Oklahoma"
"236","glaarfff","Marinaria",33.0278677,-96.7110398,"Texas"
"237","DarrenRosengar1","Norwalk, CT",41.117744,-73.4081575,"Connecticut"
"241","jsarai__","Columbus, OH",39.9611755,-82.9987942,"Ohio"
"242","Michele99649815","North Carolina, USA",35.7595731,-79.0192997,"North Carolina"
"246","Cody060","Grand Rapids",42.9633599,-85.6680863,"Michigan"
"247","78Grams","Home",37.0457815,-95.6715121,"Kansas"
"248","wtf_luffy","Los Angeles, California ",34.0522342,-118.2436849,"California"
"250","valeriexmichele","California, USA",36.778261,-119.4179324,"California"
"252","robtemery","SoCal, Israel & MX",34.9592083,-116.419389,"California"
"258","ToastystToaster","Illinois, USA",40.6331249,-89.3985283,"Illinois"
"262","MissssMills","   Texas",31.9685988,-99.9018131,"Texas"
"263","gaelicgailgay","ksp",37.3808702,-93.953136,"Missouri"
"265","Okami10k"," HOUSE OF GREGORY ",39.9518651,-75.202423,"Pennsylvania"
"266","jamsfranca","flavortown",34.1500774,-84.8259353,"Georgia"
"268","NUELKlNG","Worldwide ",36.249758,-95.266826,"Oklahoma"
"270","morgan_tassin","Deville, LA",31.3533863,-92.1499356,"Louisiana"
"271","VirginSexPet","Dry Rot Butte, AZ",46.0038232,-112.5347775,"Montana"
"272","casadytayler","bellevue, oh",41.2736647,-82.8415763,"Ohio"
"273","demarpoindexter","Kentucky, USA",37.8393332,-84.2700179,"Kentucky"
"274","smashness513","Portland, OR",45.5122308,-122.6587185,"Oregon"
"275","Lacey_World","In your dreams.",34.1945158,-84.3066722,"Georgia"
"277","Tedss_","Orlando, FL",28.5383355,-81.3792365,"Florida"
"281","palaciosk1m","California, USA",36.778261,-119.4179324,"California"
"282","karrot250","Mission, TX",26.2159066,-98.3252932,"Texas"
"283","serenaxbr","outer space ",41.3535161,-72.9254428,"Connecticut"
"288","hinx","Wilmington, DE",39.744655,-75.5483909,"Delaware"
"289","WillTheRappture","Houston, TX",29.7604267,-95.3698028,"Texas"
"291","615Hockey","Tennessee, USA",35.5174913,-86.5804473,"Tennessee"
"292","iam_horlumighty","With God",42.90473,-78.737804,"New York"
"294","_brookeyfbaby","O<U+02BB>ahualua, Hawai<U+02BB>i",19.8967662,-155.5827818,"Hawaii"
"296","crossover_fan","Edinburg, TX",26.3017374,-98.1633432,"Texas"
"298","jvillegasUT","Springfield, IL",39.7817213,-89.6501481,"Illinois"
"301","eliza_beth1615","Indianapolis, IN",39.768403,-86.158068,"Indiana"
"302","GeanSamantha","Harrisburg, IL",37.7383812,-88.540607,"Illinois"
"304","LostPrediction","North Carolina, USA",35.7595731,-79.0192997,"North Carolina"
"306","resplendentlake","the milky way",34.0550364,-118.3903292,"California"
"307","gxriveraa","1980's",46.1914006,-122.1955508,"Washington"
"310","novemberhaiku","Lovettsville, VA",39.2726017,-77.636657,"Virginia"
"311","HillaTweets","The Great State Of, Texas",31.9685988,-99.9018131,"Texas"
"313","MeeshUniVerSoul","Newark, NJ",40.735657,-74.1723667,"New Jersey"
"315","DavrielleG","MD • NY",40.7636668,-73.9709945,"New York"
"317","BetsyK1014","Brimfield, OH",41.106366,-81.3509416,"Ohio"
"318","hellogoogirl","Maunawili, Hawaii",21.3727778,-157.7705556,"Hawaii"
"323","TinaTheLardFN","Charlotte, NC",35.2270869,-80.8431267,"North Carolina"
"324","Ondrayaaa","Jonesboro",35.8422967,-90.704279,"Arkansas"
"325","InKellzWeTrust","Racine , Wisconsin",42.7261309,-87.7828523,"Wisconsin"
"330","IceBlue102","Irvine",33.6845673,-117.8265049,"California"
"332","amyncrookton_","Toledo, OH",41.6528052,-83.5378674,"Ohio"
"334","Kasejohnson14","Sandusky, OH",41.4561754,-82.7116821,"Ohio"
"335","MChereese_","NOLA<U+269C><U+FE0F><U+0001F5A4><U+0001F49B>",29.9510658,-90.0715323,"Louisiana"
"336","IndieBombDotCom","New York, USA",40.7127753,-74.0059728,"New York"
"338","yvespops","pops",35.658277,-97.33548,"Oklahoma"
"340","HelloCVH","next to the snacks",36.3424366,-94.2096386,"Arkansas"
"342","MarcoAnimeYT","Grand Line",36.2188877,-115.2082377,"Nevada"
"347","Sammy_Socialite","Atlanta, GA",33.7489954,-84.3879824,"Georgia"
"352","glibly_jjb","Nashville, TN",36.1626638,-86.7816016,"Tennessee"
"353","sonyeonsana","yana",27.9423719,-82.486229,"Florida"
"354","Nataliaa_r98","Perris, CA",33.7825194,-117.2286478,"California"
"355","Aluminemsiren","Arlington, TX",32.735687,-97.1080656,"Texas"
"356","katie_deserto","New York, USA",40.7127753,-74.0059728,"New York"
"357","Ratmanners","Spokane, WA",47.6587802,-117.4260465,"Washington"
"358","quinncy","Los Angeles",34.0522342,-118.2436849,"California"
"359","ACh3rry","KSU",34.0380784,-84.5815717,"Georgia"
"362","baybeeteejayx03","T X <U+21A0> C O.",31.9685988,-99.9018131,"Texas"
"363","baileyruedisale","Lansing, MI",42.732535,-84.5555347,"Michigan"
"366","Cjsmithcassidy2","Maryland, USA",39.0457549,-76.6412712,"Maryland"
"368","RedTheCatsDiary","California, USA",36.778261,-119.4179324,"California"
"369","BreakofDMG","Atlanta, GA",33.7489954,-84.3879824,"Georgia"
"375","UNDRSCORE87_FGC","Chicago, IL",41.8781136,-87.6297982,"Illinois"
"376","kinggouch1k","ATLANTA GA ",33.7489954,-84.3879824,"Georgia"
"377","rafalhill","New England, USA",43.9653889,-70.8226541,"Maine"
"378","jxckie14","San Antonio, TX",29.4241219,-98.4936282,"Texas"
"380","queencarii","UNCG",36.0689296,-79.8101975,"North Carolina"
"381","jalon502","Louisvlle, Louisville",38.2526647,-85.7584557,"Kentucky"
"382","TobyBaratta","Seattle, WA",47.6062095,-122.3320708,"Washington"
"383","SheCallsMeKing","Charlotte/Concord",35.4087517,-80.579511,"North Carolina"
"384","yeaitsmisty","Dallas, TX",32.7766642,-96.7969879,"Texas"
"386","sigh_johnnax0","217",36.7499635,-95.967834,"Oklahoma"
"388","TropicalJazzz","Houston, TX",29.7604267,-95.3698028,"Texas"
"390","gone4good567","World ",36.7491737,-95.972262,"Oklahoma"
"392","GammPop","New Jersey, USA",40.0583238,-74.4056612,"New Jersey"
"395","LoveelyVivi_","Oxnard, CA",34.1975048,-119.1770516,"California"
"398","ANDREASPOHLMAN3","Clearwater, FL",27.9658533,-82.8001026,"Florida"
"399","Alxx_M","San Antonio",29.4241219,-98.4936282,"Texas"
"400","pagano_joe","Bayonne NJ<U+2708><U+FE0F>Tampa FL",40.6687141,-74.1143091,"New Jersey"
"401","andisoflyy","Wis<U+2708><U+FE0F>NY<U+2708><U+FE0F>OK",43.7844397,-88.7878678,"Wisconsin"
"402","nicholasbryan25","Chicago, IL",41.8781136,-87.6297982,"Illinois"
"403","yourdeadgotcha","Your cemetery",36.7281566,-95.9305448,"Oklahoma"
"409","DragonEmbers","Hell ",42.43472,-83.985,"Michigan"
"410","BaileyTheKid","Greenwood, WI",44.7702406,-90.5993076,"Wisconsin"
"412","g_jasemine","Bakersfield, CA",35.3732921,-119.0187125,"California"
"415","victooriaaac","Houston, TX",29.7604267,-95.3698028,"Texas"
"417","SuzanneSuchan","Orchard Park, NY",42.7675323,-78.7440921,"New York"
"418","K0ALAF13D","Vancouver, WA",45.6272259,-122.6727305,"Washington"
"419","_melxc","LB x SD <U+0001F334>",43.9695148,-99.9018131,"South Dakota"
"423","jongho_9","tula <U+2665><U+203F><U+2665> d-14 till ateez atl",33.7489954,-84.3879824,"Georgia"
"424","grownwyou","ohio <U+03A8>",40.4172871,-82.907123,"Ohio"
"426","1Freebandyonna","GA",32.1656221,-82.9000751,"Georgia"
"427","izsoloilooklike","Pittsburgh",40.4406248,-79.9958864,"Pennsylvania"
"432","Wassy_Cassy","Atascosa, Texas ",29.2648341,-98.7348026,"Texas"
"433","JonathanTripp21","In The Valley of Tripp",39.2046283,-121.0660719,"California"
"434","MisfitLeBeau","Louisiana",30.9842977,-91.9623327,"Louisiana"
"435","biforashley","Charlotte, NC",35.2270869,-80.8431267,"North Carolina"
"438","BluSimba_","Cleveland, OH",41.49932,-81.6943605,"Ohio"
"439","Bosstress23","Louisiana<U+2764><U+FE0F>",30.9842977,-91.9623327,"Louisiana"
"440","calixoxo___","Phoenix, AZ",33.4483771,-112.0740373,"Arizona"
"441","stachbuakr","Florida, USA",27.6648274,-81.5157535,"Florida"
"442","apooky35","Alpine, TX",30.3584919,-103.6610115,"Texas"
"448","KallistaM1997","Michigan, USA",44.3148443,-85.6023643,"Michigan"
"449","spinmynips","Bay Area",37.8271784,-122.2913078,"California"
"451","chvpo","Indy",39.768403,-86.158068,"Indiana"
"453","megbennington","Nashville, TN",36.1626638,-86.7816016,"Tennessee"
"454","ballanature19","above the law",42.0159589,-87.6676419,"Illinois"
"455","makabitch","GU // Port Orchard, WA",47.5403732,-122.6362492,"Washington"
"456","urfuneralbae","New York, USA",40.7127753,-74.0059728,"New York"
"457","hoosiemommy27","Indiana, USA",40.2671941,-86.1349019,"Indiana"
"458","lyricall_15","Albany ga",31.5785074,-84.155741,"Georgia"
"459","DentalOfficeNYC","New York, NY",40.7127753,-74.0059728,"New York"
"462","BlakeMadison_","Atlanta, GA",33.7489954,-84.3879824,"Georgia"
"463","Just_Quitta","Charlotte, NC",35.2270869,-80.8431267,"North Carolina"
"464","TMD_Love","Florida, USA",27.6648274,-81.5157535,"Florida"
"466","TandyToaster","from pillar to post",37.0621328,-93.2224093,"Missouri"
"467","skyking1975","bedrock,ma. 02740",41.6381659,-70.9368469,"Massachusetts"
"469","TNMelissa","Tennessee",35.5174913,-86.5804473,"Tennessee"
"470","YungBunnyLu","South East",37.0358272,-95.6276367,"Kansas"
"473","_JorDyyy_","NOLA",29.9510658,-90.0715323,"Louisiana"
"478","_barbiegirl11_","Michigan, USA",44.3148443,-85.6023643,"Michigan"
"479","mugeca","Canadia",40.7534496,-73.9893388,"New York"
"481","nickysltx","Houston TX",29.7604267,-95.3698028,"Texas"
"482","billymocolorado","Englewood, CO",39.6477653,-104.9877597,"Colorado"
"485","desabae_","inside",36.292268,-95.842016,"Oklahoma"
"486","shanerice","Milton, FL",30.6324149,-87.0396881,"Florida"
"489","TheSecondMario","Duncanville, TX",32.6518004,-96.9083366,"Texas"
"491","_YasmineMickal","Tennessee, USA",35.5174913,-86.5804473,"Tennessee"
"492","_inkyytee","301",37.2256801,-95.706922,"Kansas"
"493","_HelloJenny","Palmdale",34.5794343,-118.1164613,"California"
"494","meghanplustwo","New York",40.7127753,-74.0059728,"New York"
"496","OneReese_","4th Ward",29.7579028,-95.3808683,"Texas"
"497","MeKiRoMoHamm","CALIFORNIA or A NICE BEACH!!!",34.0393629,-118.8757839,"California"
"499","leledaboss_","Michigan, USA",44.3148443,-85.6023643,"Michigan"
"502","123RMAGA1","N. Dallas 'Burbs",32.9620968,-96.7863844,"Texas"
"504","arejaypeejay","Port Arthur, TX ",29.8849504,-93.939947,"Texas"
"505","nycholmboy074","Coconut Creek, FL",26.2517482,-80.1789351,"Florida"
"506","MelroseAve_","Colorado Springs, CO",38.8338816,-104.8213634,"Colorado"
"507","alexparkmall","Texas, USA",31.9685988,-99.9018131,"Texas"
"511","_erinmichelle__","843",32.9170585,-80.0285598,"South Carolina"
"512","rygbxns","El Paso, TX",31.7618778,-106.4850217,"Texas"
"514","BeAutyFulSavag3","Inglewood, CA",33.9616801,-118.3531311,"California"
"515","NVTIVbass","Colorado, USA",39.5500507,-105.7820674,"Colorado"
"518","kennyya94","Sacramento, CA",38.5815719,-121.4943996,"California"
"520","tauxian","California, USA",36.778261,-119.4179324,"California"
"521","TopherHarding","Texas State University",29.888411,-97.938351,"Texas"
"522","_Jdugg","Prince George, VA",37.1593052,-77.2405153,"Virginia"
"523","xcookieofgrande","NM USA | see ariana on 7-11-19",34.5199402,-105.8700901,"New Mexico"
"524","Mollyrocket1","Nyc",40.7127753,-74.0059728,"New York"
"525","creepydollchick","in your closet",35.4782531,-97.3703058,"Oklahoma"
"527","SamHenken","Brooklyn, NY",40.6781784,-73.9441579,"New York"
"538","myartmyworld","in music, writing, & art world",42.3466964,-71.0870951,"Massachusetts"
"540","katie_mayyy_","Arizona, USA",34.0489281,-111.0937311,"Arizona"
"546","Ambrosiarose1","Universal",28.4538786,-81.4644812,"Florida"
"549","yesi_tweets","San Diego, CA",32.715738,-117.1610838,"California"
"553","CandiMathis","Music City, USA",36.1626638,-86.7816016,"Tennessee"
"556","darklulvibee","chicago <U+0001F923>!",41.8781136,-87.6297982,"Illinois"
"557","whitneythomass","Kentucky, USA ",37.8393332,-84.2700179,"Kentucky"
"559","katiidoll","Rutgers U",40.5008186,-74.4473991,"New Jersey"
"562","MrBoominSolo","the set.",36.032327,-86.79892,"Tennessee"
"565","RazzYoga","Phoenix, MD",39.51291,-76.6074575,"Maryland"
"566","GollesSierra","•|i|• Ø i+! ].[",40.1019523,-88.2271615,"Illinois"
"569","AutumnWyvermn","Sunrise, FL",26.1669711,-80.256595,"Florida"
"570","WaywardPlane","Titusville, FL",28.6122187,-80.8075537,"Florida"
"571","azwitasari","Pride Rock",32.804048,-96.169901,"Texas"
"572","b_mcnett","Bremerton, WA",47.5650067,-122.6269768,"Washington"
"574","josevic65","Alabama",32.3182314,-86.902298,"Alabama"
"576","Codstermania","Minnesota, USA",46.729553,-94.6858998,"Minnesota"
"577","lillia1776","grundy va ",37.2778886,-82.0990223,"Virginia"
"578","AuntieLuke","no where near you.",36.0982691,-115.1640743,"Nevada"
"579","NasdaqCrypto","moon",40.5169767,-80.2213477,"Pennsylvania"
"584","AliciaGoy","Mililani Mauka, HI",21.4513314,-158.0152807,"Hawaii"
"585","0215MADman","Michigan, USA",44.3148443,-85.6023643,"Michigan"
"586","deck_the_holly","Bay Area, CA",37.8271784,-122.2913078,"California"
"587","marymonzon06","Birmingham, AL",33.5185892,-86.8103567,"Alabama"
"588","skylar6918","Orlando, FL",28.5383355,-81.3792365,"Florida"
"590","cloth_mother","Fort Collins, CO",40.5852602,-105.084423,"Colorado"
"591","MissAyaKurumi","The city of Keeling",32.2591734,-110.9655659,"Arizona"
"592","SherriB0mb","Tucson, AZ",32.2226066,-110.9747108,"Arizona"
"593","_TheRealistTayy","2-5",42.142302,-77.049474,"New York"
"594","papiiaaron","California, USA",36.778261,-119.4179324,"California"
"598","buerbtw","California, USA",36.778261,-119.4179324,"California"
"600","DominaSlut","Pittsburgh ",40.4406248,-79.9958864,"Pennsylvania"
"601","CrazieNLov3","Zone6",33.7509329,-84.3213409,"Georgia"
"603","gorgeousTEELEE","The Hills ",39.1939147,-94.587778,"Missouri"
"607","Weebvile","South Florida",27.6648274,-81.5157535,"Florida"
"608","_TinyBriana","California<U+2600><U+FE0F>",36.778261,-119.4179324,"California"
"610","Elizabeth_C28","Houston, TX",29.7604267,-95.3698028,"Texas"
"611","BooBvtch","Southaven, MS",34.9918587,-90.0022958,"Mississippi"
"614","GirlOxygen","your mom's",30.393345,-91.161682,"Louisiana"
"615","princesspea7","Oregon",43.8041334,-120.5542012,"Oregon"
"616","Helloworld1012","Renton, WA",47.4796927,-122.2079218,"Washington"
"617","Javier_Garc161","Hell",42.43472,-83.985,"Michigan"
"618","Hello_Davey","Brooklyn, NYC",40.6781784,-73.9441579,"New York"
"624","DrewbiesDoobies","California, USA",36.778261,-119.4179324,"California"
"625","PrissyBritchez","rayscar ",42.1797948,-71.2219418,"Massachusetts"
"627","PAULADESIMIO","Mansfield, Texas",32.5631924,-97.1416768,"Texas"
"629","CrippledQueer","Reading or Bristol ",44.13291,-73.07848,"Vermont"
"630","simply_sandy89","Manhattan, NY",40.7830603,-73.9712488,"New York"
"631","JennaSampson1","In my bed ",44.1068197,-103.2112366,"South Dakota"
"632","Supa_by_nature","Krypton..",33.009056,-96.672847,"Texas"
"633","skylar_grace18","Michigan, USA",44.3148443,-85.6023643,"Michigan"
"634","psquaredlens","Chicago",41.8781136,-87.6297982,"Illinois"
"638","MikailaTrillard","talking about basketball / PDX",45.5319259,-122.6668596,"Oregon"
"641","MarianneLee2016","TEXAS ",31.9685988,-99.9018131,"Texas"
"642","ysayanaa","Los Angeles, CA",34.0522342,-118.2436849,"California"
"644","tz_uyu","ia",41.8780025,-93.097702,"Iowa"
"647","AyeCutt","Richmond, VA",37.5407246,-77.4360481,"Virginia"
"648","Team__David","Leo, TX ",30.3660435,-96.9849839,"Texas"
"650","kriistyxo","Maricopa, AZ",33.0581063,-112.0476423,"Arizona"
"652","OctoberrSZN","Long Island",40.789142,-73.134961,"New York"
"653","danatheHG","vibe central. ",39.9961372,-82.023828,"Ohio"
"654","syazniomar","School of accounting",36.1532457,-95.9472048,"Oklahoma"
"655","Reading_Deals","Atlanta, GA",33.7489954,-84.3879824,"Georgia"
"658","thenearzone","Somewhere else",37.9778781,-122.2927379,"California"
"659","BSchulz33868165","San Carlos, CA",37.5071591,-122.2605222,"California"
"660","mycity_504","New Orleans/Houston",29.9365048,-90.0776554,"Louisiana"
"663","CastroNayelie","Syracuse, NY",43.0481221,-76.1474244,"New York"
"666","mcpastorpast","Gilbert, AZ",33.3528264,-111.789027,"Arizona"
"667","LouisVEE_","New Jersey, USA",40.0583238,-74.4056612,"New Jersey"
"669","LovelyShem_","Connecticut, USA",41.6032207,-73.087749,"Connecticut"
"670","xQuickSlowDownx","Maryland, USA",39.0457549,-76.6412712,"Maryland"
"674","CarlLachman","Orange County, CA",33.7174708,-117.8311428,"California"
"675","proudmaraiss","West Hollywood, CA",34.0900091,-118.3617443,"California"
"680","_Joeylynne","Los Angeles, CA",34.0522342,-118.2436849,"California"
"681","xdxstinyx","VA",36.103255,-95.8716018,"Oklahoma"
"684","AsHlEy__KiNg96","Coffeyville, KS",37.0373005,-95.6163665,"Kansas"
"687","armani_jole","Cleveland, OH",41.49932,-81.6943605,"Ohio"
"688","alinthearchives","Georgia, USA",32.1656221,-82.9000751,"Georgia"
"690","Winston_Truth","American Redoubt",40.850771,-73.944958,"New York"
"692","quincy_staley","Midtown, Atlanta",33.783315,-84.3831166,"Georgia"
"695","betty_leighton","Oklahoma, USA",35.0077519,-97.092877,"Oklahoma"
"696","BurgessKurt","Indiana",40.2671941,-86.1349019,"Indiana"
"697","uknow_bellafant","Texas, USA",31.9685988,-99.9018131,"Texas"
"700","SDWilsonWrites","Georgia, USA",32.1656221,-82.9000751,"Georgia"
"702","sydnastey","Rocky Mount, VA",36.9976403,-79.8919774,"Virginia"
"703","yungabbi","birmingham / mk",33.4173176,-86.6834437,"Alabama"
"704","AndrewRei15","Portland, Oregon",45.5122308,-122.6587185,"Oregon"
"707","steven24stewart","Corona, CA",33.8752935,-117.5664384,"California"
"710","OBobbyj","Chicago, IL",41.8781136,-87.6297982,"Illinois"
"711","itsdamilolaa","planet earth",41.909611,-87.771964,"Illinois"
"712","MumfordJoy","Long Beach, CA",33.7700504,-118.1937395,"California"
"713","love_bender01","Pekin, IL",40.5675388,-89.640658,"Illinois"
"714","Lamacc_","Chicago, IL",41.8781136,-87.6297982,"Illinois"
"718","Samartix15","The Future",44.9393945,-93.2394493,"Minnesota"
"719","TranceTriton","Texas",31.9685988,-99.9018131,"Texas"
"720","haileyfab","Las Vegas, NV",36.1699412,-115.1398296,"Nevada"
"721","x_bloodline","ohio",40.4172871,-82.907123,"Ohio"
"722","SamiHyer","Ripon, CA",37.7394537,-121.1354141,"California"
"726","KikaoTheWolf","5th Dimension",40.146401,-88.276067,"Illinois"
"727","bigsurswift","Earth, Universe",36.1568902,-95.9915346,"Oklahoma"
"728","JHasselberger","Sandy Hook, CT  USA",41.4218208,-73.2833176,"Connecticut"
"731","importedmuslim","Houston, TX",29.7604267,-95.3698028,"Texas"
"733","Jonna_Shea","Edmond/Stillwater Oklahoma",35.6218697,-97.4832438,"Oklahoma"
"740","muva614","Neptune ",47.6611901,-122.3140371,"Washington"
"741","rinduelle","90-ST.",40.7484367,-73.8765289,"New York"
"742","Riles945","Mathis, TX",28.0944558,-97.8280543,"Texas"
"743","NerminKekic","Chicago, IL",41.8781136,-87.6297982,"Illinois"
"744","GarethGordon","Everywhere",33.7589188,-84.3640829,"Georgia"
"746","AlexisGarrett_","St Petersburg, FL",27.7676008,-82.6402915,"Florida"
"747","rileym_kiefer","North Carolina, USA",35.7595731,-79.0192997,"North Carolina"
"748","SkylarNoDiggins","Remote",43.0059455,-123.8925908,"Oregon"
"749","bake718","Brooklyn, The World",40.6188134,-74.0021511,"New York"
"750","___marieeejaeee","Oxford, AL",33.6142714,-85.8349648,"Alabama"
"754","SaintNurse","Oregon (Lost Californian)",41.94,-121.5052778,"California"
"755","GeekElite","Seattle, WA",47.6062095,-122.3320708,"Washington"
"756","_taymaraaaa","Wichita, KS",37.6871761,-97.330053,"Kansas"
"758","misskatemaxwell","Raleigh, NC",35.7795897,-78.6381787,"North Carolina"
"759","Shawnie610","Chester, PA",39.849557,-75.3557457,"Pennsylvania"
"762","J_Riv19","Orland Hills, IL<U+27A1><U+FE0F> Mequon, Wi",41.5853107,-87.8431078,"Illinois"
"765","__iBreakHearts","Columbia, SC",34.0007104,-81.0348144,"South Carolina"
"766","KikiWrites","The Cornfield, IL",41.209562,-88.6452885,"Illinois"
"768","NewDay64671264","Nowhere",40.7317696,-73.9841161,"New York"
"769","derea13","Des Moines, IA",41.5868353,-93.6249593,"Iowa"
"770","randyrrworley","Houston, Texas",29.7604267,-95.3698028,"Texas"
"773","FasanMichael","Worldwide",36.249758,-95.266826,"Oklahoma"
"774","LatezMW","san antonio",29.4241219,-98.4936282,"Texas"
"775","TylerViall","Battle Ground, WA",45.7806939,-122.5475467,"Washington"
"778","ft_Kill","Flagstaff, AZ",35.1982836,-111.651302,"Arizona"
"780","DigitalxRequiem","Taunton, MA",41.900101,-71.0897674,"Massachusetts"
"781","Prettyyy_Hustle","anderson IN",40.1053196,-85.6802541,"Indiana"
"782","_SimplyTi","Boston, MA",42.3600825,-71.0588801,"Massachusetts"
"783","BrianPMarion","Hamilton, NJ",40.2115109,-74.6796651,"New Jersey"
"787","carolinethegeek","SEA (but DCA always)",47.4502499,-122.3088165,"Washington"
"790","beardedandcigar","Byram, MS",32.1793163,-90.2453671,"Mississippi"
"791","yrnanana","alli",36.0505034,-95.7918982,"Oklahoma"
"794","drsamyeedds","Aliso Viejo, CA",33.5684605,-117.7262981,"California"
"797","authoranna","Moline ",41.5067003,-90.5151342,"Illinois"
"798","matt_mollinedo","Rialto, CA",34.1064001,-117.3703235,"California"
"799","heybaldie","Houston, TX",29.7604267,-95.3698028,"Texas"
"803","TootThtThugga_","boo",36.04393,-95.885566,"Oklahoma"
"805","RaquelYasmin_","San Francisco ",37.7749295,-122.4194155,"California"
"809","sonicherosfan","the ol' 818 (SoCal)",34.9592083,-116.419389,"California"
"812","TheOneAndOnlyEd","Los Angeles, CA",34.0522342,-118.2436849,"California"
"817","elisest88634265","Georgia, USA",32.1656221,-82.9000751,"Georgia"
"818","TheLotaChukwu","God's Eye",33.3437322,-84.5434511,"Georgia"
"819","sunflowerseavey","cincinnati",39.1031182,-84.5120196,"Ohio"
"820","Dru8376","Dallas, TX",32.7766642,-96.7969879,"Texas"
"821","eclecticinvest","Fullerton, CA",33.8703645,-117.9242123,"California"
"822","ChocolateThickT","Roanoke, VA",37.2709704,-79.9414266,"Virginia"
"823","KokoroAkechi","around Seattle I guess",47.6048152,-122.3305677,"Washington"
"824","honoha86","Here",36.7435531,-95.9359977,"Oklahoma"
"825","miggyxsantos","ust | letran | south",36.9941417,-95.6129003,"Oklahoma"
"827","LlVEBREATHE","17 | FL",27.6648274,-81.5157535,"Florida"
"828","butc_h","Houston, TX",29.7604267,-95.3698028,"Texas"
"829","tomar84","langley",38.9464996,-77.1588685,"Virginia"
"830","Symone_99","Lafayette,AL",32.899776,-85.4011588,"Alabama"
"831","aaliyahmahogani","Monroe, LA",32.5093109,-92.1193012,"Louisiana"
"833","butterfliesblue","pending",40.7453363,-73.9902096,"New York"
"837","gladglads","New Jersey",40.0583238,-74.4056612,"New Jersey"
"838","GrimmCookies","Middle Earth",33.6446621,-117.8370968,"California"
"839","60SecsToDeath","On Razor's Edge",33.078868,-96.8232144,"Texas"
"841","arcsno_","hell ",42.43472,-83.985,"Michigan"
"842","FOMI_US","New York, NY",40.7127753,-74.0059728,"New York"
"848","veroicone","Jacksonville, FL",30.3321838,-81.655651,"Florida"
"850","theone_cyn","Nan Ruelle la",34.0522342,-118.2436849,"California"
"858","JoshuapBoston1","Harrisburg, NE",41.5563636,-103.7385563,"Nebraska"
"859","NaeGWALA","chicago",41.8781136,-87.6297982,"Illinois"
"861","david_epperson","Columbus, IN",39.2014404,-85.9213796,"Indiana"
"864","emmanuel__143","Brownsville, TX",25.9017472,-97.4974838,"Texas"
"865","_chellybby","Atlanta, GA",33.7489954,-84.3879824,"Georgia"
"866","claudiabeth","Chevy Chase, MD",38.9692771,-77.0788667,"Maryland"
"869","TheComic_Dude","Indiana, USA",40.2671941,-86.1349019,"Indiana"
"870","ephxmeride_","Nice",39.1232253,-122.848327,"California"
"873","thebeatsalive","Seattle, WA",47.6062095,-122.3320708,"Washington"
"875","charitykristenn","nashville ",36.1626638,-86.7816016,"Tennessee"
"880","ludachristyyy","256",38.236951,-122.641717,"California"
"881","BESportSheet","Murray, KY",36.6103334,-88.314761,"Kentucky"
"882","JordanMieko","boston",42.3600825,-71.0588801,"Massachusetts"
"883","meowth","A galaxy far, far away",28.385233,-81.563874,"Florida"
"884","DavidCvstaneda","Not David. ND.",40.4148901,-104.9901324,"Colorado"
"885","yolawnder","idk",36.3704479,-94.1049312,"Arkansas"
"886","cyberspork","Boston, MA",42.3600825,-71.0588801,"Massachusetts"
"889","andyswist","NJ-NYC",40.774851,-74.0385114,"New Jersey"
"890","will_cliff_","VSU ",37.2384613,-77.4198721,"Virginia"
"891","_AllDaii","My own lane",33.0465019,-96.858026,"Texas"
"892","Dopeynightlife1","Greensboro, NC",36.0726354,-79.7919754,"North Carolina"
"893","latyazsabre","Georgia, USA",32.1656221,-82.9000751,"Georgia"
"894","dylanjhebert12","The Boot",36.108767,-95.905547,"Oklahoma"
"900","_YoItsKakess","Greenville, Tx <U+2661> ( :",33.1384488,-96.1108066,"Texas"
"901","finstergrrrl","Denver, CO",39.7392358,-104.990251,"Colorado"
"904","Jmichaeltucker2","West Highland, Denver",39.7638219,-105.0411298,"Colorado"
"906","Peg_leg_Pete","North of Seattle",47.7170204,-122.3009337,"Washington"
"911","Lovee_Krystalin","San Antonio <U+2708><U+FE0F> Tally <U+0001F34A>",29.4241219,-98.4936282,"Texas"
"912","kcchiefscooper","Iowa, USA",41.8780025,-93.097702,"Iowa"
"913","Luvv_Dreaaa","In space",34.0431514,-118.2548126,"California"
"914","kidyusuke","South Carolina, USA",33.836081,-81.1637245,"South Carolina"
"915","EricaLeighWhite","Charlotte, NC",35.2270869,-80.8431267,"North Carolina"
"919","honeyandsmart","Arlington, TX",32.735687,-97.1080656,"Texas"
"922","arielklontz","Nashville, TN",36.1626638,-86.7816016,"Tennessee"
"924","SuzyQsea","Earth",37.2321077,-95.7243335,"Kansas"
"925","nandarent","Arizona/California",34.7171877,-114.4878314,"California"
"927","VanessaTheTol","Look up",35.100408,-82.417121,"South Carolina"
"928","turnbob73","Redlands, CA",34.0555693,-117.1825381,"California"
"929","DameMaggieHodge","Nirvana",36.147481,-95.942129,"Oklahoma"
"931","8ylberina","Another Planet",39.94228,-75.155855,"Pennsylvania"
"933","jezzebelle277","everywhere",33.7589188,-84.3640829,"Georgia"
"935","dngmarie","JDAJ",33.5191664,-90.1819498,"Mississippi"
"940","MikaelaN__","New York, NY",40.7127753,-74.0059728,"New York"
"942","halloweenchick","Kenmore, NY",42.9658907,-78.870036,"New York"
"944","Strangeland_Elf","Ithilien",40.6216082,-74.72214,"New Jersey"
"945","LovelyLilifer","Nebraska, USA",41.4925374,-99.9018131,"Nebraska"
"946","hereisjake","California, USA",36.778261,-119.4179324,"California"
"948","copperbird7","Valley of the Sun",33.4483771,-112.0740373,"Arizona"
"949","pinkstarburst21","727",36.1659924,-95.9041025,"Oklahoma"
"950","denissemoreno29","Houston, TX",29.7604267,-95.3698028,"Texas"
"951","wesleywhite626","Sandy, UT",40.5649781,-111.8389726,"Utah"
"955","TASTElikeKYNdy","ODU",36.8853217,-76.3058786,"Virginia"
"956","jowharahhh","New Jersey, ",40.0583238,-74.4056612,"New Jersey"
"958","Kandice_Tweets","MSU <U+0001F985><U+2764><U+FE0F>",42.701848,-84.4821719,"Michigan"
"959","ShadowDusk94","Chicago, IL",41.8781136,-87.6297982,"Illinois"
"963","jsreinecker","Edson, KS",39.3382284,-101.5464127,"Kansas"
"964","JessicaRunion2","Ripley, WV",38.8186957,-81.7106851,"West Virginia"
"966","velveteins","fl | callisto | 1231",27.6648274,-81.5157535,"Florida"
"970","StefanieFortson","Georgia, USA",32.1656221,-82.9000751,"Georgia"
"971","bwspastudios","Pocono Mountains",41.0700078,-75.4344727,"Pennsylvania"
"972","VignoeTyler15","bolivar mo",37.6144838,-93.4104749,"Missouri"
"975","_KendrickH_","No Days Off TX",31.9685988,-99.9018131,"Texas"
"976","ConcussionCornr","New York, NY",40.7127753,-74.0059728,"New York"
"977","1Rylic","Neptune, CA",37.8087841,-122.2517734,"California"
"978","DaveBngDave","Arizona, USA",34.0489281,-111.0937311,"Arizona"
"981","CoffeeIdk","htx",29.7552928,-95.3553688,"Texas"
"986","DinkyYFE","Peoria, IL ",40.6936488,-89.5889864,"Illinois"
"989","DiabolicFN","Massachusetts, USA",42.4072107,-71.3824374,"Massachusetts"
"991","xBBx","New Jersey, USA",40.0583238,-74.4056612,"New Jersey"
"992","seejessiedraw","WHOOP Headquarters",42.344638,-71.099117,"Massachusetts"
"994","mslpitt","Texas, USA",31.9685988,-99.9018131,"Texas"
"995","pussypennies","beyonce",25.8210583,-80.2323876,"Florida"
"998","Eldalleth","Oklahoma City, OK",35.4675602,-97.5164276,"Oklahoma"
"1000","alextlira","Denver, CO",39.7392358,-104.990251,"Colorado"
"1001","LadyKing_4","Brooklyn, NY",40.6781784,-73.9441579,"New York"
"1003","Kali_Dominic","NOLA",29.9510658,-90.0715323,"Louisiana"
"1009","claybar57","Seattle, Wa.",47.6062095,-122.3320708,"Washington"
"1010","official_kristy","Waterloo Iowa",42.492786,-92.3425775,"Iowa"
"1011","Coach_Lueck","Aberdeen, SD",45.4646985,-98.4864829,"South Dakota"
"1012","MJRonRadio","Philadelphia/Phoenix/Worldwide",39.9525839,-75.1652215,"Pennsylvania"
"1015","jeffdeguia_","Los Angeles, CA",34.0522342,-118.2436849,"California"
"1017","Tglizzy19","Chicago, IL",41.8781136,-87.6297982,"Illinois"
"1018","TravBtalkinSHIT","Bay Area, Ca",37.8271784,-122.2913078,"California"
"1019","drmchenrylee","Edna, Tx",28.9785947,-96.6460877,"Texas"
"1022","harrylegend33","603 Seacoast",43.0646603,-70.7861558,"New Hampshire"
"1023","PaulCRoberto","Madisonville, KY",37.3281005,-87.4988882,"Kentucky"
"1024","hyggeJeonie","Hi hello !!",40.6497284,-73.5859221,"New York"
"1025","teemcee","• DTW <U+2708><U+FE0F> PHX <U+2708><U+FE0F> SAN <U+2708><U+FE0F> LAS •",42.2161722,-83.3553842,"Michigan"
"1033","klttenyuta","g&g|kunky|VDT",37.418191,-95.6818343,"Kansas"
"1034","khmapes1","Pennsylvania, USA",41.2033216,-77.1945247,"Pennsylvania"
"1035","Janiyis_","Rhode Island, USA",41.5800945,-71.4774291,"Rhode Island"
"1038","gayh0rney","Los Angeles, CA",34.0522342,-118.2436849,"California"
"1039","abifacee","Minnesota, USA",46.729553,-94.6858998,"Minnesota"
"1042","staceyhipple","Arcadia",34.1397292,-118.0353449,"California"
"1044","iiamneneee","$$$$$$ ON MY MIND",34.1778147,-94.7847554,"Oklahoma"
"1047","PCatstronaut","Pittsburgh, PA, USA",40.4406248,-79.9958864,"Pennsylvania"
"1048","EricaLikayyyy","West Pensacola, FL",30.4265866,-87.2796948,"Florida"
"1049","chaengfs","nlsc",40.479688,-111.904763,"Utah"
"1050","HatashHyrunashi","California, USA",36.778261,-119.4179324,"California"
"1052","Chinitaa_Iris","EPTX",31.7502053,-106.3001242,"Texas"
"1055","GetErDoneRTCO","Colorado",39.5500507,-105.7820674,"Colorado"
"1058","jonblatho","Norman, OK",35.2225668,-97.4394777,"Oklahoma"
"1059","RA_Saint6","Garden Grove, CA",33.7742692,-117.9379952,"California"
"1061","eightfiftty","850 <U+0001F308>",38.9208122,-120.007089,"California"
"1064","SaysEdwina","Living In the ""D""",42.331427,-83.0457538,"Michigan"
"1070","xochitlsky","Atlanta",33.7489954,-84.3879824,"Georgia"
"1071","OmarDeanII","Dirty South. ",33.9649304,-118.2255295,"California"
"1072","superoeo","Bmore",39.2903848,-76.6121893,"Maryland"
"1073","deymdeyn","Goner",35.119727,-89.990425,"Tennessee"
"1074","JamieBeaman","New York City",40.7127753,-74.0059728,"New York"
"1078","mikeylikesNYR","New Jersey, USA",40.0583238,-74.4056612,"New Jersey"
"1079","MoonFlower_FG","Chicago, IL",41.8781136,-87.6297982,"Illinois"
"1080","kailuhmarieee","Centreville, VA",38.8403909,-77.4288769,"Virginia"
"1083","jooniedew","California, USA",36.778261,-119.4179324,"California"
"1085","503spooktown","Henderson, NV",36.0395247,-114.9817213,"Nevada"
"1088","bunnyhentman","Brooklyn",40.6781784,-73.9441579,"New York"
"1089","KatieKimNBC","Chicago, IL",41.8781136,-87.6297982,"Illinois"
"1090","jayybiirrd","Portland, OR",45.5122308,-122.6587185,"Oregon"
"1093","gisellelune","Los Angeles, CA",34.0522342,-118.2436849,"California"
"1095","Chenita91","Tx",31.9685988,-99.9018131,"Texas"
"1096","GamerBabeTravel","Santa Rosa, CA",38.440429,-122.7140548,"California"
"1097","AngeliqueMayer","San Francisco",37.7749295,-122.4194155,"California"
"1098","i_martin1","Greensboro, NC",36.0726354,-79.7919754,"North Carolina"
"1099","zoooooooooool","ny c",40.7127753,-74.0059728,"New York"
"1100","VillagerEditor1","The Woodlands, Texas",30.1658207,-95.4612625,"Texas"
"1102","WMawbelleo","Surrounded by chairs",36.059484,-95.851834,"Oklahoma"
"1103","DrRayND","Sacramento, CA",38.5815719,-121.4943996,"California"
"1105","RealMichaelCote","Nowhere,USA",35.1592256,-98.4422802,"Oklahoma"
"1106","starclusterr","Memphis 10",35.0537716,-90.0215115,"Tennessee"
"1108","jayyfyb","Charlotte, NC",35.2270869,-80.8431267,"North Carolina"
"1109","xMarcHenry","the 7 seas",47.3272987,-122.5798707,"Washington"
"1110","JosepxhKeller","California, USA",36.778261,-119.4179324,"California"
"1112","2jay2function","bucks co",40.4107964,-75.2479061,"Pennsylvania"
"1114","vampireskoolgrl","Flagstaff, AZ",35.1982836,-111.651302,"Arizona"
"1115","RyeLind","Georgia, USA",32.1656221,-82.9000751,"Georgia"
"1116","geemultani24","Los Angeles ",34.0522342,-118.2436849,"California"
"1119","FLCENES","L.I.N.Y.",40.8793846,-73.404998,"New York"
"1121","DestWest99","TEXAS<U+2708><U+FE0F> LOST",31.9685988,-99.9018131,"Texas"
"1122","kimlofxx","under the stars",32.7505964,-117.1716797,"California"
"1127","ItianaBlanco","Baltimore, MD",39.2903848,-76.6121893,"Maryland"
"1128","sarahvtompkins","Valencia, California",34.456151,-118.5713823,"California"
"1132","tyeshabruh","Chicago, IL",41.8781136,-87.6297982,"Illinois"
"1134","scudo98","Astroworld",29.6774067,-95.4075459,"Texas"
"1137","k__antwanette","Ypsi by way of FLINT ",42.2411499,-83.6129939,"Michigan"
"1138","michele_tripple","Dallas, TX",32.7766642,-96.7969879,"Texas"
"1139","odeorainisms","Laboratory. ",37.2246359,-95.7162525,"Kansas"
"1140","TaylorrHawkinss","NJ <U+2661>",40.0583238,-74.4056612,"New Jersey"
"1141","arthriticeq","Enfield, NH",43.640644,-72.143983,"New Hampshire"
"1142","Sw33t_Spot","Pittsburgh, PA",40.4406248,-79.9958864,"Pennsylvania"
"1143","Project7","Orange County, CA",33.7174708,-117.8311428,"California"
"1144","CrweWorld","Las Vegas, NV",36.1699412,-115.1398296,"Nevada"
"1147","NotSoSilentMajo","DMV",37.2266829,-95.716216,"Kansas"
"1156","DamianEudy","Albuquerque, NM",35.0843859,-106.650422,"New Mexico"
"1158","ZhanikB","Suwanee, GA",34.0514898,-84.0712997,"Georgia"
"1161","_sarahgrim_","Akron, OH",41.0814447,-81.5190053,"Ohio"
"1164","mayrajulietaa","Houston, TX",29.7604267,-95.3698028,"Texas"
"1167","Megan_MKE","Brown Deer, WI",43.1633426,-87.9645321,"Wisconsin"
"1168","DevitaOfCourse","sunshine state. fl ",27.6648274,-81.5157535,"Florida"
"1169","damndaisyyy","Jt's house",36.9484179,-79.361296,"Virginia"
"1170","amhamilton1014","Wichita, Kansas",37.6871761,-97.330053,"Kansas"
"1171","cultst","dee | 29 | wv | she/they",38.5976262,-80.4549026,"West Virginia"
"1174","jlee8701","furry road",38.0843458,-121.2416139,"California"
"1176","abbysayswords","New York, USA",40.7127753,-74.0059728,"New York"
"1177","techjollof","Planet Earth",41.909611,-87.771964,"Illinois"
"1179","VernWilliamsMD","Los Angeles, CA",34.0522342,-118.2436849,"California"
"1180","_Stellajess","san pablo, california",37.9621457,-122.3455263,"California"
"1181","tymishiaaaHoee","ATL<U+0001F351>",33.7489954,-84.3879824,"Georgia"
"1184","kailess_24","Watsonville, CA",36.910231,-121.7568946,"California"
"1193","DrJtheJingG","No Place",36.160308,-95.8455521,"Oklahoma"
"1195","LilyWilma","New Jersey, USA",40.0583238,-74.4056612,"New Jersey"
"1198","SoItsSara","Minnesota, USA",46.729553,-94.6858998,"Minnesota"
"1199","diazjazzy","Los Angeles, California ",34.0522342,-118.2436849,"California"
"1200","Soooooooooohkyu","California, USA",36.778261,-119.4179324,"California"
"1202","arielbergamini_","Texas, USA",31.9685988,-99.9018131,"Texas"
"1205","LishaDoee","Baltimore, MD",39.2903848,-76.6121893,"Maryland"
"1206","AudreyLover92","Ohio, USA",40.4172871,-82.907123,"Ohio"
"1207","Pharmics","Salt Lake City",40.7607793,-111.8910474,"Utah"
"1210","ejacqui","Chicago // New York // Rockies",41.8781136,-87.6297982,"Illinois"
"1212","Tweet_Lovee_","Pearland, TX",29.5635666,-95.2860474,"Texas"
"1213","0888_sara","Mid - Missouri <U+0001F69C>",38.4879093,-92.2802022,"Missouri"
"1214","ItsaSmart","Grand Rapids, MI",42.9633599,-85.6680863,"Michigan"
"1217","ShereevsShyna","Milwaukee, WI",43.0389025,-87.9064736,"Wisconsin"
"1221","twiggyerin","Houston, TX",29.7604267,-95.3698028,"Texas"
"1223","heauonthego","Portland, OR",45.5122308,-122.6587185,"Oregon"
"1226","_Starkeisha","Memphis <U+21AD> Martin",35.1495343,-90.0489801,"Tennessee"
"1227","YoMalik","Atlanta, GA",33.7489954,-84.3879824,"Georgia"
"1228","joolerina","Connecticut, USA",41.6032207,-73.087749,"Connecticut"
"1229","beth_morton","The Green Mountains",44.791667,-72.582778,"Vermont"
"1231","Therealldeej","WI<U+2708><U+FE0F>FL",43.7844397,-88.7878678,"Wisconsin"
"1232","iefamharris","with the hustle",37.7744413,-122.4115889,"California"
"1234","JoannieTheJedi","Philly",39.9525839,-75.1652215,"Pennsylvania"
"1235","lanathaliaa","Hayward, CA",37.6688205,-122.0807964,"California"
"1238","sharks1311","San Jose, CA",37.3382082,-121.8863286,"California"
"1240","Sayyydeees","Houston, TX",29.7604267,-95.3698028,"Texas"
"1241","NudeRage","NYC",40.7127753,-74.0059728,"New York"
"1243","MrSixPoints","Pittsburg, CA",38.0279762,-121.8846806,"California"
"1244","GypsyNilsen","Burnsville, MN",44.7677424,-93.2777226,"Minnesota"
"1247","kategerv","New Jersey, USA",40.0583238,-74.4056612,"New Jersey"
"1248","tati_rad","OU '19",35.2058936,-97.4457137,"Oklahoma"
"1249","wjxt4","Jacksonville, Fla.",30.3321838,-81.655651,"Florida"
"1250","DisneySwiftie","Atlanta, GA",33.7489954,-84.3879824,"Georgia"
"1251","reigensgf","they/them . o h n2 m j t",37.1786321,-94.3015665,"Missouri"
"1252","fiweh","Worldwide",36.249758,-95.266826,"Oklahoma"
"1255","Aneraaa_","Baltimore, MD",39.2903848,-76.6121893,"Maryland"
"1257","SassFactory_","Lake Orion, MI",42.7844752,-83.2396612,"Michigan"
"1258","awitsandrea","Houston",29.7604267,-95.3698028,"Texas"
"1259","psychmajorvia","Texas, USA",31.9685988,-99.9018131,"Texas"
"1261","anxietysgomez","hogwarts.",28.4722475,-81.4736377,"Florida"
"1262","StacksDame","Canton ohio",40.7989473,-81.378447,"Ohio"
"1263","NGEKANG","KRP.OC.",33.7174708,-117.8311428,"California"
"1264","KillerArtking","michigan detroit",42.331427,-83.0457538,"Michigan"
"1267","AustinM_Photo","NJ",40.0583238,-74.4056612,"New Jersey"
"1274","EatLiveLaugh","Los Angeles, CA",34.0522342,-118.2436849,"California"
"1275","MeekPhill_","Queens, NY",40.7282239,-73.7948516,"New York"
"1276","hellbillyJ79","PRINCETON,IN",38.3553236,-87.5675222,"Indiana"
"1277","K_A_Grayson","New York, USA",40.7127753,-74.0059728,"New York"
"1278","byronicqueer_o","north star mall cowboy boots",29.5199883,-98.4939698,"Texas"
"1279","MaimThe","Los Angeles, CA",34.0522342,-118.2436849,"California"
"1280","shaykardashh","South Bend, IN",41.6763545,-86.2519898,"Indiana"
"1284","Arend_Sheree91"," Arizona",34.0489281,-111.0937311,"Arizona"
"1285","i__AmNuNu","Philadelphia, PA",39.9525839,-75.1652215,"Pennsylvania"
"1287","tokyotavern","West Las Vegas, Las Vegas",36.1955984,-115.1554879,"Nevada"
"1288","d_eaisha","Alexandria, LA <U+2708><U+FE0F> Houston, TX",31.3112936,-92.4451371,"Louisiana"
"1289","knjhuney","<U+C900> ",36.8011795,-94.3602169,"Missouri"
"1292","BigAshley_","Houston, TX",29.7604267,-95.3698028,"Texas"
"1293","innovationn_","Lucena | Dasma",41.4975683,-81.6806969,"Ohio"
"1294","ByHisGr52404097","New Orleans, LA",29.9510658,-90.0715323,"Louisiana"
"1296","MsLadyV_","Monroe, LA",32.5093109,-92.1193012,"Louisiana"
"1297","DanaSneed5","Holdenville, OK",35.0803617,-96.3991765,"Oklahoma"
"1298","heartsforphil","terabithia ",38.5661615,-94.9933489,"Kansas"
"1300","nuclearcarly","NJ",40.0583238,-74.4056612,"New Jersey"
"1301","bainslie78","New Hampshire, USA",43.1938516,-71.5723953,"New Hampshire"
"1306","vgpbeauty","Los Angeles, CA",34.0522342,-118.2436849,"California"
"1307","SantaPatriot","North Pole, AK",64.7511111,-147.3494443,"Alaska"
"1311","Gryphongirl2007","New York, NY",40.7127753,-74.0059728,"New York"
"1315","_MarcusMarcusss","cyberspace",41.680175,-88.208321,"Illinois"
"1317","whoachino","always movin // vegas",36.21655,-115.176364,"Nevada"
"1320","doranyisx","Paterson, NJ",40.9167654,-74.171811,"New Jersey"
"1321","DawnyPrestom","Westport, CT | NYC",41.1414717,-73.3579049,"Connecticut"
"1324","filloryandmagic","Brakebills, Or Brooklyn Ny",40.6781784,-73.9441579,"New York"
"1326","bloomingyoon","my bed",44.9991459,-93.2718701,"Minnesota"
"1327","tigrejaponesa","<U+3042><U+307F><U+3057><U+3066><U+308B> | Ryukyu ",39.0384475,-94.6867816,"Kansas"
"1330","jelanitime","East Harlem, Manhattan",40.7957399,-73.9389213,"New York"
"1331","v_i_c_t_o_r_m","Oklahoma, USA",35.0077519,-97.092877,"Oklahoma"
"1332","Kinkajou5123","Austin, TX",30.267153,-97.7430608,"Texas"
"1333","jackieh_15","Banquete, TX",27.806281,-97.7965464,"Texas"
"1334","FamImTired","Fayetteville, AR",36.082156,-94.1718542,"Arkansas"
"1337","S_Aguilar4991","City of Evil, AZ",34.0489281,-111.0937311,"Arizona"
"1339","inner_reset","Los Angeles ,CA",34.0522342,-118.2436849,"California"
"1340","BalmainBarbie1","Atlanta, GA",33.7489954,-84.3879824,"Georgia"
"1341","KevinnCyrus","Cyrus, NV ",39.520303,-119.815667,"Nevada"
"1342","DollyHadBraces","The Squared Circle",40.629067,-76.387791,"Pennsylvania"
"1343","DiZongker","Valrico, FL",27.9462615,-82.2420317,"Florida"
"1345","PlanetJStokes","Detroit, MI",42.331427,-83.0457538,"Michigan"
"1350","DByrd937","Dayton, OH",39.7589478,-84.1916069,"Ohio"
"1351","savannahdead","good ole' pennsylvania",40.5207288,-77.8346922,"Pennsylvania"
"1352","haileyycheyenne","T E X A S ",31.9685988,-99.9018131,"Texas"
"1353","aspaterson","San Francisco Area",37.8271784,-122.2913078,"California"
"1355","dehydratedsumo1","up",37.2697857,-95.5528355,"Kansas"
"1356","spacepup10","Texas, USA",31.9685988,-99.9018131,"Texas"
"1358","darkphanlp","kansas city, mo",39.0997265,-94.5785667,"Missouri"
"1360","Gabrielle_KSHUB","Kingston, Maine",44.9592231,-70.1539542,"Maine"
"1361","Ivey_BiZaaR","Brooklyn, NY",40.6781784,-73.9441579,"New York"
"1362","KoopaKungFu","Atlanta, GA",33.7489954,-84.3879824,"Georgia"
"1363","Maayyaaa__","NY <U+2708><U+FE0F> D[M]V",43.2994285,-74.2179326,"New York"
"1364","kenyadigit18","Mississippi, USA",32.3546679,-89.3985283,"Mississippi"
"1365","lois7210","Pinellas Park, FL",27.8428025,-82.6995443,"Florida"
"1366","Cheetah13mo","Kansas City, MO",39.0997265,-94.5785667,"Missouri"
"1367","jxpskxrt","San Francisco, CA",37.7749295,-122.4194155,"California"
"1371","meezyftgomez","CA",36.778261,-119.4179324,"California"
"1373","petervhale","Somerset",42.5628556,-83.1841251,"Michigan"
"1375","ponderzelos","gay area",30.3149307,-81.7029572,"Florida"
"1376","bohemiangoddezz","Hotel California ",36.1732952,-115.1446128,"Nevada"
"1379","FLyScruggsBoi","Cumberland,Va",37.4963918,-78.2448664,"Virginia"
"1380","__mikkkk","Richmond, VA",37.5407246,-77.4360481,"Virginia"
"1381","JustLetMe_BEE","NOLA",29.9510658,-90.0715323,"Louisiana"
"1383","romeofitaly","Michigan, USA",44.3148443,-85.6023643,"Michigan"
"1384","Llanes19Raquel","Tucson, AZ",32.2226066,-110.9747108,"Arizona"
"1388","switnik109","suburbs of Chicago",41.7435073,-88.0118473,"Illinois"
"1389","logicthelog","Robot Town",33.4900159,-117.1453988,"California"
"1390","SabrinaSpiher","Pittsburgh",40.4406248,-79.9958864,"Pennsylvania"
"1393","Bleed_Vodka","Austin, Tx. ",30.267153,-97.7430608,"Texas"
"1394","Beautiful_Caa","Mississippi",32.3546679,-89.3985283,"Mississippi"
"1395","BrenDee85","Pennsylvania<U+E50C>USA ",41.2033216,-77.1945247,"Pennsylvania"
"1399","KatheGr08t","NJ",40.0583238,-74.4056612,"New Jersey"
"1401","AbusaadZaid","Z Town",40.7959838,-80.1372519,"Pennsylvania"
"1402","AndrewEisen","San Diego",32.715738,-117.1610838,"California"
"1403","QisPresident","560 state st",40.6851675,-73.9786448,"New York"
"1405","AJMullican","Arizona, USA",34.0489281,-111.0937311,"Arizona"
"1407","OfHexAppeal","Shadowcrest",46.8262891,-96.8789314,"North Dakota"
"1410","TheIJordan","New York, USA",40.7127753,-74.0059728,"New York"
"1414","Espinoza_les","Richfield, MN",44.8832982,-93.2830021,"Minnesota"
"1415","AnneRN79","Houston",29.7604267,-95.3698028,"Texas"
"1418","BSCBaso","Bethune, SC",34.4148762,-80.348683,"South Carolina"
"1420","MsTJones87","New York, NY",40.7127753,-74.0059728,"New York"
"1423","JesicaAHallet","florida",27.6648274,-81.5157535,"Florida"
"1427","theFoulkster","Tuscaloosa, AL",33.2098407,-87.5691735,"Alabama"
"1428","flyiingsparrow","Missourian living in Michigan",37.9642529,-91.8318334,"Missouri"
"1430","This_Kinda_Love","in the right place",42.966185,-85.6704798,"Michigan"
"1431","Softfor_Tae","New Jersey",40.0583238,-74.4056612,"New Jersey"
"1432","Go_Nadz824","Philadelphia/Bloomsburg",41.0079058,-76.4262093,"Pennsylvania"
"1433","emociional82","Ohio, USA",40.4172871,-82.907123,"Ohio"
"1434","ChrisAsterisk","Brooklyn, NY",40.6781784,-73.9441579,"New York"
"1438","serpentst0unge","Atlanta, GA",33.7489954,-84.3879824,"Georgia"
"1439","OleFunkE","Yinzer",40.4522837,-79.9824392,"Pennsylvania"
"1440","rkaynine","504 LSU",30.4132579,-91.1800023,"Louisiana"
"1444","phvm0us","Arkansas",35.20105,-91.8318334,"Arkansas"
"1446","cassblackwell62","Dothan, AL",31.2232313,-85.3904888,"Alabama"
"1449","Eric3653","Virginia, USA",37.4315734,-78.6568942,"Virginia"
"1450","Dunny0","Paradise, NV",36.0971945,-115.1466648,"Nevada"
"1452","TwoToneTay","Yerrrrrrr Queens, NY",40.7282239,-73.7948516,"New York"
"1456","kveon99","Houston, TX",29.7604267,-95.3698028,"Texas"
"1457","moonpetals13","moonlight",39.247571,-94.4663732,"Missouri"
"1458","Betty_Kart1","Santa Clara, CA",37.3541079,-121.9552356,"California"
"1459","MattBos","SEA, NYC, LA",40.7190983,-73.9862607,"New York"
"1460","_timommy","New Orleans",29.9510658,-90.0715323,"Louisiana"
"1463","JenusVenus","Texas, USA",31.9685988,-99.9018131,"Texas"
"1464","KoldRoze","California, USA",36.778261,-119.4179324,"California"
"1467","jenn_aayyee","Los Angeles, CA",34.0522342,-118.2436849,"California"
"1468","taehyubgs","091618 | 20",36.0139071,-95.8825214,"Oklahoma"
"1470","SashaRenee99","Florida, USA",27.6648274,-81.5157535,"Florida"
"1471","MatthewK33","love shack",32.7886714,-97.3486674,"Texas"
"1473","itsthalia__","Florida, USA",27.6648274,-81.5157535,"Florida"
"1477","jordany4721","Massachusetts, USA",42.4072107,-71.3824374,"Massachusetts"
"1481","Imhereyayforme","Columbus, OH",39.9611755,-82.9987942,"Ohio"
"1483","SprinkledinkINC","Louisville, KY",38.2526647,-85.7584557,"Kentucky"
"1485","katieruizz","Texas, USA",31.9685988,-99.9018131,"Texas"
"1486","kristinvmvrie","Ontario, CA",34.0633443,-117.6508876,"California"
"1489","rrmichaspn","purgatory ",37.6302699,-107.8140452,"Colorado"
"1490","SinCityHeatwKat","Las Vegas, NV",36.1699412,-115.1398296,"Nevada"
"1494","dobermanmamma","In the back woods of Maine",44.0813549,-70.2701909,"Maine"
"1496","Sue__Shaw","Charlotte, NC",35.2270869,-80.8431267,"North Carolina"
"1500","ghostattlas","west coast",62.4113634,-149.0729714,"Alaska"
"1501","bpdnaiman","rolling joints",29.8199717,-95.4608624,"Texas"
"1506","KyTheBrute","St. Louis Mo",38.6270025,-90.1994042,"Missouri"
"1507","kIyntar","marvel ; dc",36.255282,-93.119601,"Arkansas"
"1513","sirius20_81","Indianapolis",39.768403,-86.158068,"Indiana"
"1514","Nyxcowing","Endhaven",35.066821,-80.83548,"North Carolina"
"1518","LoyisoKV","Bellville/Ngqamakhwe ",29.9502253,-96.2571858,"Texas"
"1520","Man_In_Camo","New Jersey, USA",40.0583238,-74.4056612,"New Jersey"
"1524","SLUMBERDOL","17",43.020267,-85.6330241,"Michigan"
"1525","karaastone","Oakland, CA",37.8043637,-122.2711137,"California"
"1526","orangiah_","New York",40.7127753,-74.0059728,"New York"
"1527","iamkurupt3rd","Heaven’s Gate ",32.8134857,-97.3511541,"Texas"
"1529","GoTribe028","Ohio",40.4172871,-82.907123,"Ohio"
"1533","rationalbyproxy","California, USA",36.778261,-119.4179324,"California"
"1535","AgentJayJay","Somewhere in the US of A",32.656913,-95.4624295,"Texas"
"1537","m7_505oo","New austin ",30.3294949,-97.7394829,"Texas"
"1538","AyoooMikay","Chicago, IL",41.8781136,-87.6297982,"Illinois"
"1541","NyeBarbara","Gantham NH",43.5225457,-72.1534606,"New Hampshire"
"1542","DianaJJoy","Florida, USA",27.6648274,-81.5157535,"Florida"
"1544","idocpro","New England",43.9653889,-70.8226541,"Maine"
"1549","IMAGINEJ0NAH","twenty eight",33.6594368,-117.8601801,"California"
"1550","LKCollectionz","Atlanta, GA",33.7489954,-84.3879824,"Georgia"
"1551","theother_alexis","UCI",33.6404952,-117.8442962,"California"
"1553","wloganfreeman","Boston, MA",42.3600825,-71.0588801,"Massachusetts"
"1554","TheRealDeVykins","Dallas, TX",32.7766642,-96.7969879,"Texas"
"1555","StudiosDental","797 Springfield Ave
Summit, NJ 07901",40.7132441,-74.3854357,"New Jersey"
"1557","HeartPointsPod","Pennsylvania, USA",41.2033216,-77.1945247,"Pennsylvania"
"1558","AaronMQuantz","Woodland Hills, CA",34.165357,-118.6089752,"California"
"1560","Respexy","Albany, NY",42.6525793,-73.7562317,"New York"
"1561","_k_simonee","Louisiana, USA",30.9842977,-91.9623327,"Louisiana"
"1562","jhbell2614","WIlmington, DE, USA",39.744655,-75.5483909,"Delaware"
"1563","sadiane","Portland, OR",45.5122308,-122.6587185,"Oregon"
"1567","prettyflackx","Portland, OR",45.5122308,-122.6587185,"Oregon"
"1568","foreheadgoddess","Maryland, USA",39.0457549,-76.6412712,"Maryland"
"1570","guccixhemmings","California, USA",36.778261,-119.4179324,"California"
"1573","Jasmith12_S","Omaha Ne",41.2565369,-95.9345034,"Nebraska"
"1574","heather1697","Alice, TX",27.7522487,-98.0697249,"Texas"
"1575","naraquintzi","Belton, MO",38.8119527,-94.5318982,"Missouri"
"1577","itsmandible","Upstate NY",43.0481962,-76.0488458,"New York"
"1578","_Wepa_","worldwide",36.249758,-95.266826,"Oklahoma"
"1583","BostonPainCare","85 1st Avenue
Waltham, MA 0245; 200 Baker Avenue
Suite 101, Lower Level
Concord, MA 01742",42.3943601,-71.2685818,"Massachusetts"
"1584","lopsidedplant_","Seattle, WA",47.6062095,-122.3320708,"Washington"
"1587","fifisfairytale","Rapunzel’s Tower",28.4204173,-81.5827306,"Florida"
"1588","allseeingjesus","California, USA",36.778261,-119.4179324,"California"
"1590","_Julesyjewels","By the sea",41.2788808,-72.8069247,"Connecticut"
"1591","lilsquidny","austin, texass",30.267153,-97.7430608,"Texas"
"1592","roooof","Durham, NC",35.9940329,-78.898619,"North Carolina"
"1593","raeraedd","Boston, MA",42.3600825,-71.0588801,"Massachusetts"
"1598","xrdcastillo","sky's",47.9249178,-97.0315933,"North Dakota"
"1602","Britmonster","Rhode Island, USA",41.5800945,-71.4774291,"Rhode Island"
"1603","samlymatters","Brooklyn via Scranton",40.6781784,-73.9441579,"New York"
"1604","i62mx1","BAD.angel.",38.5529834,-91.0062526,"Missouri"
"1606","Breniverse","Chicago",41.8781136,-87.6297982,"Illinois"
"1609","BREELUVSCASH","18",36.28143,-95.831616,"Oklahoma"
"1610","SoulmatesWD","Eugene, OR",44.0520691,-123.0867536,"Oregon"
"1611","jewels_tx","TX",31.9685988,-99.9018131,"Texas"
"1612","Nataliavabruno","Colorado Springs, CO",38.8338816,-104.8213634,"Colorado"
"1614","shwaenando","Riverside, CA",33.9806005,-117.3754942,"California"
"1616","JLeskiwTDN","Longview, WA",46.1381676,-122.9381672,"Washington"
"1618","sharpknuckle","Orlando, FL",28.5383355,-81.3792365,"Florida"
"1621","ESayanova","Virginia",37.4315734,-78.6568942,"Virginia"
"1622","AuntieTeju","Library",37.2255094,-95.708015,"Kansas"
"1624","DGun_712","Kokomo, IN",40.486427,-86.1336033,"Indiana"
"1625","mikai_la","smwhr in ma drmz...;-)",42.4072107,-71.3824374,"Massachusetts"
"1626","LyraHart_","Atlanta",33.7489954,-84.3879824,"Georgia"
"1627","Dieudonne1638","New Orleans, Louisiana",29.9510658,-90.0715323,"Louisiana"
"1631","taylorade_916","Sacramento, CA",38.5815719,-121.4943996,"California"
"1634","TrillyOnline","All Around The World",43.419575,-73.7090135,"New York"
"1635","Iamchronicpain","Colorado, USA",39.5500507,-105.7820674,"Colorado"
"1637","Da_Real_Titan","Metro S.C.",34.8285584,-82.3108518,"South Carolina"
"1638","BrunetteNomad","On the road.",37.149516,-94.056035,"Missouri"
"1640","Alyson36637101","South Carolina, USA",33.836081,-81.1637245,"South Carolina"
"1641","Nic_Pocket","Lewisville, Texas",33.046233,-96.994174,"Texas"
"1645","angelfuhyobih","<U+0001F492><U+2728>",45.117941,-93.229742,"Minnesota"
"1647","juliieace","Neverland",34.6514983,-83.8853411,"Georgia"
"1650","iferroh","the right place",42.966185,-85.6704798,"Michigan"
"1652","aguituan","Bay Area",37.8271784,-122.2913078,"California"
"1654","ColeReynolds_58","Norman, OK",35.2225668,-97.4394777,"Oklahoma"
"1657","DroneShield","Warrenton, VA",38.7134516,-77.7952712,"Virginia"
"1659","EcoLunatic","S. Cali",36.778261,-119.4179324,"California"
"1663","ItsTalena","Tyler, TX",32.3512601,-95.3010624,"Texas"
"1666","mushabear","Michigan, USA",44.3148443,-85.6023643,"Michigan"
"1667","QuinnDoyle17","Barberton, OH",41.012833,-81.6051221,"Ohio"
"1673","jocorena","New York, NY",40.7127753,-74.0059728,"New York"
"1674","FlowersOfMinnie","Georgia, USA",32.1656221,-82.9000751,"Georgia"
"1676","DebonaireToast","Neverwhere",42.5777301,-87.8374878,"Wisconsin"
"1679","Biancaamendozaa","san diego ",32.715738,-117.1610838,"California"
"1683","nudesouule","DMV",37.2266829,-95.716216,"Kansas"
"1684","magurorone","whock",36.1453231,-95.8862642,"Oklahoma"
"1687","bIameitonlove","mn ",46.729553,-94.6858998,"Minnesota"
"1688","Taylor_Rae_33","Colorado",39.5500507,-105.7820674,"Colorado"
"1693","basicallyperfff","California, USA",36.778261,-119.4179324,"California"
"1698","1lenore","Sunnyvale, CA",37.36883,-122.0363496,"California"
"1699","tmbmiilpt2","Texas, USA",31.9685988,-99.9018131,"Texas"
"1700","fakeglove","Oregon, USA",43.8041334,-120.5542012,"Oregon"
"1701","RichardLouisMe1","Chicago, IL",41.8781136,-87.6297982,"Illinois"
"1702","TWillardAuthor","Six degrees from Alfenwehr",44.9476014,-93.2992962,"Minnesota"
"1703","WilliamBMartin5","Dayton, TN",35.4939587,-85.0124535,"Tennessee"
"1704","Lil721_","Georgia, USA",32.1656221,-82.9000751,"Georgia"
"1706","_SmithCommaJohn","MUSICIAN AND GRAPHIC DESIGNER",44.791954,-91.517409,"Wisconsin"
"1707","_NatLee13","Louisiana",30.9842977,-91.9623327,"Louisiana"
"1708","ayabeacham","Oakland, CA",37.8043637,-122.2711137,"California"
"1713","thatugandan_DK","Dallas, TX",32.7766642,-96.7969879,"Texas"
"1715","cynthia125","Fort Worth, TX",32.7554883,-97.3307658,"Texas"
"1722","yanniekrazy","Milwaukee, WI",43.0389025,-87.9064736,"Wisconsin"
"1724","spaghettighoul","Midwest USA",35.463494,-97.4107128,"Oklahoma"
"1726","akajay__","HTX<U+2708><U+FE0F>CA",33.9415889,-118.40853,"California"
"1727","HypnoAphrodite","In Your Head",37.7857016,-122.4306044,"California"
"1728","MrKitMath","New York, NY",40.7127753,-74.0059728,"New York"
"1731","DorisDelMar_","Gotham City",40.7127753,-74.0059728,"New York"
"1734","dalandan____","Ph",36.1498952,-96.0055776,"Oklahoma"
"1736","Anisaliyah_","morgan state",39.3437959,-76.5843847,"Maryland"
"1742","NASACHAMBIEX","N A S A",29.5593451,-95.089998,"Texas"
"1746","eddkim90","Baltimore, MD",39.2903848,-76.6121893,"Maryland"
"1747","shaistanawake","NY/NJ",40.0583238,-74.4056612,"New Jersey"
"1750","RexThomresist45","Idaho, USA",44.0682019,-114.7420408,"Idaho"
"1753","Keyy_Air_Uhhhh","quip",37.7898162,-122.3969054,"California"
"1755","yungbabyman","Los Angeles",34.0522342,-118.2436849,"California"
"1756","VytaxD","The trash",40.0926679,-105.9542126,"Colorado"
"1757","Wxgirl169","Flat FLORIDA",28.1731788,-82.7852359,"Florida"
"1758","OutroMel","Seattle, WA",47.6062095,-122.3320708,"Washington"
"1759","swiftheartbun","your garbage",29.7217337,-95.5396228,"Texas"
"1763","groovytae3","Staying True, Texas ",30.3081443,-104.0266117,"Texas"
"1764","TrumbullSteve","Raleigh, NC",35.7795897,-78.6381787,"North Carolina"
"1765","sfk1dd","Somewhere",40.7428832,-84.1167726,"Ohio"
"1773","iamtyesean","everywhere",33.7589188,-84.3640829,"Georgia"
"1774","mamachellly","Indianapolis, IN",39.768403,-86.158068,"Indiana"
"1775","The_darkhowler","Washington, USA",47.7510741,-120.7401385,"Washington"
"1776","ManticoreGoddes","Los Angeles",34.0522342,-118.2436849,"California"
"1785","therealtiscia","uncc",35.3070929,-80.735164,"North Carolina"
"1786","straychoi","e l e v e n",36.3817069,-94.2031628,"Arkansas"
"1790","NatalieRosePoir","California, USA",36.778261,-119.4179324,"California"
"1793","mareslauraaa_","Santa Ana, CA",33.7454725,-117.867653,"California"
"1795","imafanofavocado","LA and SoFL",34.0522342,-118.2436849,"California"
"1797","TheSharktonaut","Connecticut, USA",41.6032207,-73.087749,"Connecticut"
"1798","michaelaa_pope","Portage, MI",42.2011538,-85.5800022,"Michigan"
"1804","Breonna_Madry","NASA",29.5593451,-95.089998,"Texas"
"1806","TC_1018","Kansas City, Missouri",39.0997265,-94.5785667,"Missouri"
"1807","TRi0_ThreeTimes","Believeland...",41.506431,-81.699154,"Ohio"
"1811","BulletProneBoi","Wisconsin, USA",43.7844397,-88.7878678,"Wisconsin"
"1816","dumplindaughter","Dallas, Texas",32.7766642,-96.7969879,"Texas"
"1821","Ashleyvasquez_","Phoenix, AZ",33.4483771,-112.0740373,"Arizona"
"1822","insanitywelcome","Oregon City, OR",45.3363593,-122.6048473,"Oregon"
"1825","jacob__zepeda","Flower Fields",33.1230447,-117.3175875,"California"
"1826","RedHeadedAuthor","Oregon, USA",43.8041334,-120.5542012,"Oregon"
"1827","SABRtooth69","Midwest, USA",35.463494,-97.4107128,"Oklahoma"
"1828","WarlordOfSuna","New World",36.0877711,-95.8614622,"Oklahoma"
"1829","Future_H3ndrix","south burbs/ chicago",41.7396861,-87.5544182,"Illinois"
"1830","phoneticspaces","Georgia, USA",32.1656221,-82.9000751,"Georgia"
"1832","ClintChasteen","Plano, TX",33.0198431,-96.6988856,"Texas"
"1834","Steph2Def","The DMV",37.2266829,-95.716216,"Kansas"
"1835","chab0ichris","Maryland, USA",39.0457549,-76.6412712,"Maryland"
"1838","Alakotila","Midwestern United States",38.680588,-90.0200982,"Illinois"
"1841","mikekuban1962","Temple, TX",31.0982344,-97.342782,"Texas"
"1842","ItsZipTho","904",30.2737055,-97.7497554,"Texas"
"1844","___JazzyJas","Southside Raleigh, NC",35.8689245,-78.7288302,"North Carolina"
"1846","GeronimoShyy17","Universe",36.1568902,-95.9915346,"Oklahoma"
"1847","fovvsart","Hogwarts",28.4722475,-81.4736377,"Florida"
"1848","NikolausZeller","Garden Grove, CA",33.7742692,-117.9379952,"California"
"1852","frangipancakes","pennsylvania somewhere",40.6406162,-76.1858345,"Pennsylvania"
"1856","LiarAndAGleek","Fandomverse-Charmedville",36.2199362,-115.250465,"Nevada"
"1859","SandraxSunshine","Middletown, CT",41.5623209,-72.6506488,"Connecticut"
"1860","KatieMcCoy113","New Jersey, USA",40.0583238,-74.4056612,"New Jersey"
"1861","umitshope","dub v",38.882728,-94.8193238,"Kansas"
"1863","Mr_Stoner_252","MY BAG",32.7932504,-96.7762675,"Texas"
"1864","NorthDaytona","BALTIMORE BOOMIN",39.2903848,-76.6121893,"Maryland"
"1866","healingatlas","Healing Atlas",38.9719746,-94.738133,"Kansas"
"1868","BookBoy1268","Chicagoland",41.7435073,-88.0118473,"Illinois"
"1872","slugittarius","Chicago, IL",41.8781136,-87.6297982,"Illinois"
"1875","_diyanazlkfely_","Washington, USA",47.7510741,-120.7401385,"Washington"
"1879","treyonna1227","My Worldd (:",47.5947165,-122.3094951,"Washington"
"1881","BlackburnReview","NYC/ATL",40.757537,-73.974179,"New York"
"1886","HochishlyDavid","Southfield, MI",42.4733688,-83.2218731,"Michigan"
"1889","MsAFromBK","Brooklyn, New York",40.6781784,-73.9441579,"New York"
"1891","clayrussell","Tyler, TX",32.3512601,-95.3010624,"Texas"
"1893","MingMtg","Springfield, Mo",37.2089572,-93.2922989,"Missouri"
"1894","Kusku72","Great Falls Montana",47.5052849,-111.3007715,"Montana"
"1896","yagirlakira","beyond",37.3398697,-95.2626978,"Kansas"
"1899","deangrl36","Roanoke Virginia ",37.2709704,-79.9414266,"Virginia"
"1903","Lamar_noKendrck","Atmore, AL",31.0237921,-87.4938708,"Alabama"
"1904","tbrock623","Philadelphia, PA",39.9525839,-75.1652215,"Pennsylvania"
"1906","itsmekylageee","City of Smiles <U+0001F3AD>",38.630315,-90.195939,"Missouri"
"1907","FADEDFAlRY","J street",36.343931,-94.197927,"Arkansas"
"1909","sirbentok","Charlotte, North Carolina",35.2270869,-80.8431267,"North Carolina"
"1910","Juliaasluder","Western North Carolina ",35.613225,-82.583049,"North Carolina"
"1911","kleighflo","abilene, tx",32.4487364,-99.7331439,"Texas"
"1913","NanosYT","Mount Pleasant, TX",33.1567863,-94.968269,"Texas"
"1917","KiaChantel","Philadelphia, PA",39.9525839,-75.1652215,"Pennsylvania"
"1918","MLeeLunsford","Tacoma, WA",47.2528768,-122.4442906,"Washington"
"1919","ShaQ_NoOneal","- Trill Ent , LA",30.448255,-91.1209121,"Louisiana"
"1921","TracerRacerX","You know that doc ""Rich Hill""?",38.1033332,-94.3650086,"Missouri"
"1923","Lymboe","Sacramento, CA",38.5815719,-121.4943996,"California"
"1926","JefFullerMyself","Omaha, NE",41.2565369,-95.9345034,"Nebraska"
"1931","sharinnafermin","QC",37.8753531,-94.3404237,"Missouri"
"1935","AliM20698746","Everywhere",33.7589188,-84.3640829,"Georgia"
"1936","_breaddd","the North",35.4617956,-97.649336,"Oklahoma"
"1940","Djspittah","Tampa, FL",27.950575,-82.4571776,"Florida"
"1941","stardustschild","New York, USA",40.7127753,-74.0059728,"New York"
"1942","kentuckyshaunt1","Boynton Beach, FL",26.5317866,-80.0905465,"Florida"
"1948","RoyalCatLady","Xbox Live",29.5720936,-98.3224351,"Texas"
"1949","ShawnIsBackk","Louisiana",30.9842977,-91.9623327,"Louisiana"
"1951","kieraaaaakie","Camden, NJ",39.9259463,-75.1196199,"New Jersey"
"1952","johnnykashboy41","San Francisco, CA",37.7749295,-122.4194155,"California"
"1953","MarcStarvaggi","New York, NY",40.7127753,-74.0059728,"New York"
"1955","cynophobiax","middleofmichigan",42.7235854,-84.6449371,"Michigan"
"1956","bambiggaveli","LA.",34.0522342,-118.2436849,"California"
"1959","DoodledStars","World of Light",27.9031001,-82.7187498,"Florida"
"1960","DemonExcaliburX","Bowie, MD",39.0067768,-76.7791365,"Maryland"
"1961","MADMANZEN_","VA",37.4315734,-78.6568942,"Virginia"
"1962","TheGraysonLand","Kentucky, USA",37.8393332,-84.2700179,"Kentucky"
"1965","KingCromwell23","Pittsburgh, PA",40.4406248,-79.9958864,"Pennsylvania"
"1966","jediimasterr","Virginia, USA",37.4315734,-78.6568942,"Virginia"
"1967","blakexscofield","bookland",37.0343515,-84.6255403,"Kentucky"
"1968","antoniabuffy","Knoxville, TN",35.9606384,-83.9207392,"Tennessee"
"1969","robocryptid","a swamp",29.9572641,-90.0667833,"Louisiana"
"1970","Minervyy","the west end of tennessee",36.1501362,-86.8069698,"Tennessee"
"1972","SharraJayy","Statesboro, GA",32.4487876,-81.7831674,"Georgia"
"1974","lorylopez33","Grand Rapids, MI",42.9633599,-85.6680863,"Michigan"
"1975","fronsoir2","Gates of Heaven",39.0835114,-77.0733453,"Maryland"
"1976","NardInThePaint","Connecticut Bad Boy",41.6032207,-73.087749,"Connecticut"
"1980","KAMlDENKl","e j t l e s | they/them |",33.839951,-84.382581,"Georgia"
"1982","BklynWhyUSOBADD","Ocala . New York ",29.0139919,-82.1793708,"Florida"
"1986","superisabel76","Around!",41.4816835,-81.8281446,"Ohio"
"1989","HeyItzDeanna","Illinois, USA",40.6331249,-89.3985283,"Illinois"
"1990","therealpilanch","New Jersey",40.0583238,-74.4056612,"New Jersey"
"1992","FarmFairyCrafts","Oregon, USA",43.8041334,-120.5542012,"Oregon"
"1994","JordanWygant","Indiana",40.2671941,-86.1349019,"Indiana"
"1996","Thedarkpreacher","Illinois, USA",40.6331249,-89.3985283,"Illinois"
"1997","LT_Writing","In My Fortress of Solitude",40.7063133,-73.9372302,"New York"
"1999","narillan","Texas",31.9685988,-99.9018131,"Texas"
"2000","anthony21131582","Willingboro, NJ",40.028848,-74.8916458,"New Jersey"
"2002","abceexo__","Monroe, LA",32.5093109,-92.1193012,"Louisiana"
"2003","StrayWolf91","South Florida",27.6648274,-81.5157535,"Florida"
"2009","Liaa_andhersks","Ohio Against The World <U+0001F4CD>",40.4172871,-82.907123,"Ohio"
"2010","milkuhs","Atlanta, GA",33.7489954,-84.3879824,"Georgia"
"2011","amBITCHous__","Spice World ",28.4473433,-81.4157073,"Florida"
"2013","_naeesavage","Cleveland, OH",41.49932,-81.6943605,"Ohio"
"2015","mariahraae","baytown/kingsville, tx",29.7355047,-94.9774274,"Texas"
"2018","joshcrawley","Madison, WI",43.0730517,-89.4012302,"Wisconsin"
"2020","sexualjumanji","Wisconsin, USA",43.7844397,-88.7878678,"Wisconsin"
"2023","triviajins","hope world",32.8112737,-117.1997836,"California"
"2027","beautifulmejojo","Florida, USA",27.6648274,-81.5157535,"Florida"
"2028","aplacecalledjer","Lake Buena Vista, FL",28.3695351,-81.5261474,"Florida"
"2029","natiivah","Colorado ",39.5500507,-105.7820674,"Colorado"
"2030","FelineBengal","New Jersey, USA",40.0583238,-74.4056612,"New Jersey"
"2034","BreeSenpaii","Seattle, WA",47.6062095,-122.3320708,"Washington"
"2035","EscapistC","<U+0001F49A>",39.6389596,-104.76644,"Colorado"
"2036","CryptoRanger1","California, USA",36.778261,-119.4179324,"California"
"2038","KK_KingKokii","eNext Door",36.1467726,-96.0665044,"Oklahoma"
"2041","katiebriseno","In ur dreams",34.1945158,-84.3066722,"Georgia"
"2042","_naaayaa","my bag.",32.7932504,-96.7762675,"Texas"
"2043","PigeonGod","Louisiana",30.9842977,-91.9623327,"Louisiana"
"2048","fairyIune","nj<U+263D> jm",40.0583238,-74.4056612,"New Jersey"
"2049","Sacchoromyces","Windham, OH",41.2350562,-81.0492611,"Ohio"
"2050","ElilotAlatrez","California, USA",36.778261,-119.4179324,"California"
"2051","oriridraco","Florida, USA",27.6648274,-81.5157535,"Florida"
"2054","_ryleefreese","gcity",38.8963818,-94.6702482,"Kansas"
"2055","pdxlilly","Portland, OR",45.5122308,-122.6587185,"Oregon"
"2056","josehomicide","Long Beach, CA",33.7700504,-118.1937395,"California"
"2059","alexandria_c15","New York, USA",40.7127753,-74.0059728,"New York"
"2060","ChayseRose","Seattle, WA",47.6062095,-122.3320708,"Washington"
"2062","tricia_cavazos","Brownsville, Tx",25.9017472,-97.4974838,"Texas"
"2063","chave1ita","location: il, usa",40.6331249,-89.3985283,"Illinois"
"2066","violethepixie","21 | Northside | She/Her | <U+0001F494>",32.9935637,-96.7494407,"Texas"
"2070","rugerrelly22","Queens, NY",40.7282239,-73.7948516,"New York"
"2075","Elise_Michelle","Gilbert, AZ",33.3528264,-111.789027,"Arizona"
"2076","Lookwherewelive","Seattle/Bellevue, WA",47.6101497,-122.2015159,"Washington"
"2077","sheboyganscan","Sheboygan, WI",43.7508284,-87.71453,"Wisconsin"
"2078","hylannaaa","Spring, TX",30.0799405,-95.4171601,"Texas"
"2079","justcallmeMS","Ft.Worth,Alexandria,LA-Hou",32.7554883,-97.3307658,"Texas"
"2081","blveacid","Houston, TX",29.7604267,-95.3698028,"Texas"
"2085","malechlorine","dema",38.5664002,-90.3907365,"Missouri"
"2086","Sharon32393","Wisconsin, USA",43.7844397,-88.7878678,"Wisconsin"
"2090","_BasedOnMi","Winterville, NC",35.529051,-77.4010762,"North Carolina"
"2091","wcjackson2","New Hampshire, USA",43.1938516,-71.5723953,"New Hampshire"
"2096","_yonnieee","San Francisco • Nola",37.7643177,-122.4637951,"California"
"2099","_Meganmecrazy","California, USA",36.778261,-119.4179324,"California"
"2102","DeeDoubleU__","Atlanta, GA",33.7489954,-84.3879824,"Georgia"
"2108","m__celinaa","Los Angeles, CA",34.0522342,-118.2436849,"California"
"2113","Aledezmadh","TX",31.9685988,-99.9018131,"Texas"
"2116","PardonMyPretty_","Charlotte, NC",35.2270869,-80.8431267,"North Carolina"
"2118","teerawx_","Houston, TX",29.7604267,-95.3698028,"Texas"
"2119","Liizzie18","Magnolia, AR",33.2670725,-93.239334,"Arkansas"
"2120","MikeBgolfing","Happy Valley, OR",45.4469139,-122.5309127,"Oregon"
"2122","qtHyper","200+ Subs",37.6768994,-97.4251415,"Kansas"
"2125","Rico_recklez","Antioch, CA",38.0049214,-121.805789,"California"
"2127","missdiagnozed","Minnesota, USA",46.729553,-94.6858998,"Minnesota"
"2128","lambas70","Louisiana, USA",30.9842977,-91.9623327,"Louisiana"
"2129","Royk420","buffalo ny",42.8864468,-78.8783689,"New York"
"2131","TayLAnotTayLOR_","Peebo’s Penis Palace <U+0001F60A>",47.8776843,-122.2103706,"Washington"
"2132","3_laa91","Amman-USA",39.922949,-105.0948098,"Colorado"
"2133","Cha2xxs","Tampa, FL",27.950575,-82.4571776,"Florida"
"2134","Glitzcrisslove","okc/ Nyc",35.5947285,-97.5522974,"Oklahoma"
"2139","haleykinns_","Honolulu, HI",21.3069444,-157.8583333,"Hawaii"
"2144","Anythingforcrys","Bronx ",40.8447819,-73.8648268,"New York"
"2147","BrandonJones20","Fairmount GA",34.4362013,-84.6999346,"Georgia"
"2152","CarmenLPow","Tally/Mississippi",31.9634416,-89.2883273,"Mississippi"
"2156","NuggsTTV","North Carolina, USA",35.7595731,-79.0192997,"North Carolina"
"2160","lucyyylus","Chicago, il",41.8781136,-87.6297982,"Illinois"
"2163","seokpacito","<U+0001D48E><U+0001D486><U+0001D499>/<U+0001D496><U+0001D494><U+0001D482>",33.7819835,-118.2624423,"California"
"2165","LilitheMagdalen","Lake County, CA",39.0839644,-122.8084496,"California"
"2166","sabaholic","California",36.778261,-119.4179324,"California"
"2167","F_Sami99","221B",40.7553447,-73.989775,"New York"
"2169","Karlaa_Adams","worcester",42.2625932,-71.8022934,"Massachusetts"
"2170","glitteryminie","MONO",44.949816,-93.297423,"Minnesota"
"2174","marcussimmonscc","Atlanta, GA",33.7489954,-84.3879824,"Georgia"
"2177","LifeWithAnna","Sacramento, CA",38.5815719,-121.4943996,"California"
"2180","chanelvaldez_","Oklahoma",35.0077519,-97.092877,"Oklahoma"
"2181","DemonCatLord","Illinois",40.6331249,-89.3985283,"Illinois"
"2182","AinThatMarco","Woodbridge, VA",38.6581722,-77.2497049,"Virginia"
"2187","MarkDoesStuff","New York, NY",40.7127753,-74.0059728,"New York"
"2189","JalenGibson8","High Point, NC",35.9556923,-80.0053176,"North Carolina"
"2190","jldtweets","Dallas",32.7766642,-96.7969879,"Texas"
"2191","therealjcoffey","Cambridge, MA",42.3736158,-71.1097335,"Massachusetts"
"2192","jarekulu","California, USA",36.778261,-119.4179324,"California"
"2195","SimplieT","Get me out of here NJ",40.0583238,-74.4056612,"New Jersey"
"2196","TyJay_101","Raleigh, NC",35.7795897,-78.6381787,"North Carolina"
"2197","msbeloved19","El Paso, TX",31.7618778,-106.4850217,"Texas"
"2199","lay_ronn","Philly",39.9525839,-75.1652215,"Pennsylvania"
"2201","csummerour17","Athens, GA",33.9519347,-83.357567,"Georgia"
"2205","ToriOConner","Amelia Island, FL ~ Athens, GA",30.6405764,-81.4531566,"Florida"
"2207","JNesqu1ck","Blacksburg, VA",37.2295733,-80.4139393,"Virginia"
"2209","simmerellaaaaa","NYC",40.7127753,-74.0059728,"New York"
"2213","kindawannadiee","15 | sub | straight",30.2020921,-97.6654092,"Texas"
"2215","ItsMikeLowry_","Detroit ",42.331427,-83.0457538,"Michigan"
"2216","_LaceUpJoe","~Albuquerque . NM~",35.0843859,-106.650422,"New Mexico"
"2217","The_NerdyNative","seminole country, Fl",28.7131688,-81.2078164,"Florida"
"2218","ingrid_ermon","Island",35.8027344,-83.5704322,"Tennessee"
"2221","Siimplysydney_","Az",34.0489281,-111.0937311,"Arizona"
"2222","AndHereIsJackie","El Barrio",33.5166943,-86.8029014,"Alabama"
"2230","WeArePirple","San Francisco, CA",37.7749295,-122.4194155,"California"
"2233","jasonvb89","Waipahu, HI",21.3866667,-158.0091667,"Hawaii"
"2235","geeeuhh","Bloomfield, NJ",40.8067546,-74.1854209,"New Jersey"
"2236","samanthaaries","TEXAS",31.9685988,-99.9018131,"Texas"
"2239","thomasghancock","Lincoln, NE",40.813616,-96.7025955,"Nebraska"
"2240","MollyRobison","Chicago",41.8781136,-87.6297982,"Illinois"
"2242","_itsBRITBRAT","850 IS MY CITY",41.4998051,-81.6870929,"Ohio"
"2245","RipsRant","soul-backroad",40.8737151,-92.7533463,"Iowa"
"2246","jacob47533959","California, USA",36.778261,-119.4179324,"California"
"2247","TyeHusky","Catalina Island",33.3878856,-118.4163103,"California"
"2252","asia_shittu","Uptown, Chicago",41.9665404,-87.6533404,"Illinois"
"2254","GingerAlexis_","Houston, TX",29.7604267,-95.3698028,"Texas"
"2258","arealcin","sc : voguefugitive",33.836081,-81.1637245,"South Carolina"
"2259","Grzynkowiz13","Lawrenceburg, KY",38.0372967,-84.8966171,"Kentucky"
"2260","Sam_Pineapple","Bronx, NY",40.8447819,-73.8648268,"New York"
"2261","JPaar17","Simi Valley, California",34.2694474,-118.781482,"California"
"2262","reynaa_lara","Houston",29.7604267,-95.3698028,"Texas"
"2264","MIA_RichBands","ATL , under the trees",33.7561718,-84.3647818,"Georgia"
"2268","fxladyscorpio","West Virginia",38.5976262,-80.4549026,"West Virginia"
"2269","goldenpro_","D[M]V",37.1704425,-94.8431963,"Kansas"
"2271","TRILLANOIZ","Chicago, Illinois",41.8781136,-87.6297982,"Illinois"
"2272","JinWWH134340","purple place",38.7032625,-121.104219,"California"
"2277","runchranda","nyc",40.7127753,-74.0059728,"New York"
"2278","DeonteSister","Chicago, IL",41.8781136,-87.6297982,"Illinois"
"2280","wthrobbie","ATL. ",33.6407282,-84.4277001,"Georgia"
"2282","daleeluh","Merced, CA",37.3021632,-120.4829677,"California"
"2286","Marinaraimpasta","Sarasota, FL",27.3364347,-82.5306527,"Florida"
"2289","yeaitskimmm","Alaska<U+2764>Montana",64.2008413,-149.4936733,"Alaska"
"2291","Genesis_Xoxo2","Coalinga, CA",36.139678,-120.3601496,"California"
"2292","trylately","NYC",40.7127753,-74.0059728,"New York"
"2293","Nichoweng","Venus ",30.2851533,-81.5138602,"Florida"
"2295","johnbirchman","Lake Buena Vista, FL",28.3695351,-81.5261474,"Florida"
"2296","blkbooknerd","Chicago <U+0001F32C><U+0001F303><U+0001F30D>",41.8781136,-87.6297982,"Illinois"
"2298","Swaltaria","Azalea Town",30.5396711,-88.170705,"Alabama"
"2302","jazzatheopera","yeehaw ",36.3145746,-82.3535495,"Tennessee"
"2303","MaddysMom4209","Massachusetts",42.4072107,-71.3824374,"Massachusetts"
"2305","ceejay_raww","Alexandria, VA",38.8048355,-77.0469214,"Virginia"
"2310","__ForeignRoz","Detroit, MI",42.331427,-83.0457538,"Michigan"
"2314","gabbigabbs2","ct<U+2708><U+FE0F>htx",41.6032207,-73.087749,"Connecticut"
"2315","EastWindEchoes","The Shire",43.0489646,-87.9913505,"Wisconsin"
"2316","JakeDewarComedy","Chicago, IL",41.8781136,-87.6297982,"Illinois"
"2317","ethanschance","nyc gang",40.7274039,-73.9832284,"New York"
"2319","fanyrruiz","Geraldine, AL",34.3514798,-86.0008078,"Alabama"
"2320","PracticalWed","San Francisco",37.7749295,-122.4194155,"California"
"2321","_misti7","Raymondville, TX",26.4814565,-97.783051,"Texas"
"2322","D00DLEKID","California",36.778261,-119.4179324,"California"
"2323","SH_JW_2010","Mind Palace",38.832783,-77.099762,"Virginia"
"2325","LifeOfThad","Boynton/Nashville/Alpharetta ",36.1626638,-86.7816016,"Tennessee"
"2326","theyawnlieuease","PH",36.1498952,-96.0055776,"Oklahoma"
"2327","sinfuIeyes","aurp ; nsfw ; 22",32.3208378,-110.8922193,"Arizona"
"2328","tayssietaeyoung","Los Angeles, CA",34.0522342,-118.2436849,"California"
"2329","sanentini","Indiana, PA",40.6850762,-79.1096901,"Pennsylvania"
"2330","corey_lineberry","The Lake of Reincarnation",35.2924729,-79.2278124,"North Carolina"
"2334","ashtondeer","Bellingham, WA",48.7519112,-122.4786854,"Washington"
"2335","BDBoopster","Twin Cities, MN",44.9374831,-93.2009998,"Minnesota"
"2336","CMPFever","Charlotte, NC",35.2270869,-80.8431267,"North Carolina"
"2337","davidf4444","New York, NY",40.7127753,-74.0059728,"New York"
"2338","Farrahfaz","NY::DMV",42.7755178,-73.8975965,"New York"
"2340","__SlimTing","7.five.SEVEN",30.265596,-97.743373,"Texas"
"2341","Desss_Tinyyy","Florida <U+0001F334>",27.1244301,-80.1924729,"Florida"
"2342","KBTibbs","Internet.",37.2239612,-95.7304251,"Kansas"
"2344","solidus_strife","NYC",40.7127753,-74.0059728,"New York"
"2345","NJSnowFan","750' in Elv.NW NJ ",40.0583238,-74.4056612,"New Jersey"
"2347","ShishiVids","Michigan, USA",44.3148443,-85.6023643,"Michigan"
"2349","BiittLittle","Kansas City, MO",39.0997265,-94.5785667,"Missouri"
"2352","KiwiHatake","Arizona",34.0489281,-111.0937311,"Arizona"
"2354","emcdonald00","Top City",39.1959509,-75.549277,"Delaware"
"2357","Jayyyyym_","Dayton, VA",38.4137973,-78.9389102,"Virginia"
"2359","unfiltered_lib","Midwest USA",35.463494,-97.4107128,"Oklahoma"
"2360","keifer4994","Ludlow, MA",42.1600936,-72.475919,"Massachusetts"
"2366","belizcakmak","Saturn",36.1583952,-95.9946482,"Oklahoma"
"2367","araindogtoo","Philly",39.9525839,-75.1652215,"Pennsylvania"
"2369","Ramona_GB","California",36.778261,-119.4179324,"California"
"2371","kkamabr","23 || she/her || mn",44.0048435,-92.4786152,"Minnesota"
"2372","kayeelopez","Ph",36.1498952,-96.0055776,"Oklahoma"
"2377","fleurzbot","MSFTG",47.550624,-122.1763697,"Washington"
"2380","Bandystubbs97","Sioux City, IA <U+27A1><U+FE0F> Ames, IA",42.4963416,-96.4049408,"Iowa"
"2382","mikem126","rochester, ny",43.1565779,-77.6088465,"New York"
"2384","Septembers_Song","Coastal Georgia ",31.183817,-81.4864072,"Georgia"
"2385","bishnA4E","Below the already low bar",44.7631712,-85.6239836,"Michigan"
"2386","mattec_10","Conway, AR",35.0886963,-92.4421011,"Arkansas"
"2389","KWONY_CASH","Atlanta, GA",33.7489954,-84.3879824,"Georgia"
"2393","TheBrookeAsh","New York, NY",40.7127753,-74.0059728,"New York"
"2395","yulieemarie","Cole World",33.7629496,-84.3926696,"Georgia"
"2398","CheralChercrew","Cher ",41.053335,-124.129047,"California"
"2404","__nikaboo","Tupelo, MS",34.2576066,-88.7033859,"Mississippi"
"2405","DjPrettybOyTank","Atlanta, GA",33.7489954,-84.3879824,"Georgia"
"2407","PEACECURLSS","<U+0001D554><U+0001D559><U+0001D55A><U+0001D554><U+0001D552><U+0001D558><U+0001D560>.",41.8781136,-87.6297982,"Illinois"
"2408","JennyChitwood","Conway Springs, Kansas",37.3902975,-97.6422723,"Kansas"
"2410","_timqt18","Earth",37.2321077,-95.7243335,"Kansas"
"2412","Vanity_Siin","Raised.Dallas||Lives.FW ",32.7766642,-96.7969879,"Texas"
"2413","JH_Balko","Honolulu, Hawaii",21.3069444,-157.8583333,"Hawaii"
"2415","DaremstrSpoodle","Massillon, Ohio",40.7967244,-81.5215093,"Ohio"
"2418","meowwiiee","Isla Vista, CA",34.4133292,-119.8609718,"California"
"2422","suckmyfanfic","New York, USA",40.7127753,-74.0059728,"New York"
"2425","_Ichigo_Kitty_","New Jersey, USA",40.0583238,-74.4056612,"New Jersey"
"2426","bupgodv2","Maryland, USA",39.0457549,-76.6412712,"Maryland"
"2428","Angrynightmob","Over yonder",36.209456,-81.780958,"North Carolina"
"2429","Bekionist","PA",41.2033216,-77.1945247,"Pennsylvania"
"2430","taytootall","Houston, TX",29.7604267,-95.3698028,"Texas"
"2432","hiimbrea","somewhere in america",39.7311264,-84.028866,"Ohio"
"2435","arneishaaaK","Spartanburg, SC",34.9495672,-81.9320482,"South Carolina"
"2436","allie_shay_","Tennessee, USA",35.5174913,-86.5804473,"Tennessee"
"2438","NiilsNarhi","to infinity and beyond",39.660121,-104.8507545,"Colorado"
"2439","Kezzy_OMG","santa fe ",35.6869752,-105.937799,"New Mexico"
"2441","BAMSZN9","NJ/NY",40.7878788,-74.0143064,"New Jersey"
"2442","Olivia_B_Writes","Alameda, CA",37.7652065,-122.2416355,"California"
"2450","GenuineNemo","Houston, TX",29.7604267,-95.3698028,"Texas"
"2451","cortdashian__","07601 <U+203C><U+FE0F>",40.8876273,-74.0476378,"New Jersey"
"2452","dextrahoffman","Lexington, KY",38.0405837,-84.5037164,"Kentucky"
"2453","_exclusiveKee","Smiths, AL",32.5401393,-85.0985473,"Alabama"
"2454","always_vanesa","Cathedral City, CA",33.7805388,-116.4668036,"California"
"2456","Antdontpullout","713",29.74255,-95.399022,"Texas"
"2457","nickoleeee_","Tucson ",32.2226066,-110.9747108,"Arizona"
"2458","BEBO860","Park Terrace | Frog Hollow",41.7583943,-72.6938826,"Connecticut"
"2459","yochilldude","nh",43.1938516,-71.5723953,"New Hampshire"
"2463","xokxs","San Diego, CA",32.715738,-117.1610838,"California"
"2464","whatupallie","Charlotte, NC",35.2270869,-80.8431267,"North Carolina"
"2465","camjoness_","Sonoma State University ",38.3386081,-122.6748358,"California"
"2467","UnKoolDee","Law City",37.6928311,-97.339983,"Kansas"
"2471","YvngNino","Charlotte, NC",35.2270869,-80.8431267,"North Carolina"
"2472","_jennystarfish_","Jacksonville, FL <U+2600><U+FE0F>",30.3321838,-81.655651,"Florida"
"2473","Krizellekaye","yves ",40.7202135,-74.0099704,"New York"
"2474","toxicologist12","Baltimore",39.2903848,-76.6121893,"Maryland"
"2475","thatgirIkitty","highgarden.",36.1761921,-86.7539719,"Tennessee"
"2476","SillySheena_","Cincinnati, OH",39.1031182,-84.5120196,"Ohio"
"2478","TheMetalWitch15","Metal City,Colorado",38.234485,-104.6382322,"Colorado"
"2481","justdeebby","IG: itsdeebby / SC: itsdeebbyy",33.836081,-81.1637245,"South Carolina"
"2484","miker8771","pittsburgh",40.4406248,-79.9958864,"Pennsylvania"
"2489","UnforBETTAble","Florence - NYC ",40.7322829,-74.0020046,"New York"
"2495","gendervamp","Bellingham, WA",48.7519112,-122.4786854,"Washington"
"2497","yvonne_nye","Klamath Falls, Or",42.224867,-121.7816704,"Oregon"
"2501","blakemore_01","Healdton, OK",34.2331475,-97.4878023,"Oklahoma"
"2506","madeexarh","around the globe",33.43,-94.05,"Texas"
"2508","aliciamol1","East Haven, CT",41.2841687,-72.8684565,"Connecticut"
"2513","AlecDomin21","San Diego, CA",32.715738,-117.1610838,"California"
"2514","keshaa_97","Florida, USA",27.6648274,-81.5157535,"Florida"
"2518","EssentiaFour","Utah",39.3209801,-111.0937311,"Utah"
"2519","CassidyEller","North Port, FL",27.044224,-82.2359254,"Florida"
"2521","heenakarambux","Irving, TX <U+0001F680> Mansfield, TX",32.8140177,-96.9488945,"Texas"
"2522","RayDeJohn","Austin, TX",30.267153,-97.7430608,"Texas"
"2524","TanDa_LaYa","In my skin",36.1353409,-95.983744,"Oklahoma"
"2529","EBVBAH","pluto",37.7102092,-80.9928068,"West Virginia"
"2534","CleClinicMD","Cleveland, Ohio, United States",41.49932,-81.6943605,"Ohio"
"2537","OrientaILegend","Fort Gay, WV",38.1161988,-82.5957118,"West Virginia"
"2539","chantel_malin","CT",41.6032207,-73.087749,"Connecticut"
"2541","GarNettSKM","Asgard",42.3627669,-71.0995821,"Massachusetts"
"2542","jermyamonee","Chicago  ",41.8781136,-87.6297982,"Illinois"
"2543","britakneeee","St Paul, MN",44.9537029,-93.0899578,"Minnesota"
"2547","justregjay","nyc-fl",40.7516127,-74.0022396,"New York"
"2550","nahhhhhhhhhhhh_","Dyke Central",42.482866,-83.027278,"Michigan"
"2551","pteiss","Philadelphia PA",39.9525839,-75.1652215,"Pennsylvania"
"2553","lilyyanf","chicago",41.8781136,-87.6297982,"Illinois"
"2555","BadAsBritt","Dallas, TX",32.7766642,-96.7969879,"Texas"
"2556","Amehassocialme1","Arizona",34.0489281,-111.0937311,"Arizona"
"2557","EthicalPervert","Earth",37.2321077,-95.7243335,"Kansas"
"2558","HanzCooper","Cambridge, OH",40.031183,-81.5884561,"Ohio"
"2559","_yolaccc","Lafayette, LA",30.2240897,-92.0198427,"Louisiana"
"2560","briannaswarrior","New York, USA",40.7127753,-74.0059728,"New York"
"2562","brittcorrine96","Ohio, USA",40.4172871,-82.907123,"Ohio"
"2564","FoFo__C","Broward County ",26.190096,-80.365865,"Florida"
"2565","threegousha","West Virginia, USA",38.5976262,-80.4549026,"West Virginia"
"2566","jamiroqueer","New York, NY",40.7127753,-74.0059728,"New York"
"2567","Hlth_Literacy","Honolulu, Hawaii",21.3069444,-157.8583333,"Hawaii"
"2569","MeshellRojas","Houston, TX",29.7604267,-95.3698028,"Texas"
"2572","neildelacruz_","Lyceum",37.6863666,-97.3103326,"Kansas"
"2573","crystalamber74","Los Angeles, CA",34.0522342,-118.2436849,"California"
"2575","AkiharuKiichigo","Your local pond",42.805859,-82.978099,"Michigan"
"2576","vnteseoks","hopeworld",32.8112737,-117.1997836,"California"
"2577","iamshortyroc","Philadelphia, PA",39.9525839,-75.1652215,"Pennsylvania"
"2579","moonchildeli","[he/him] crab king <U+0001F48C>",47.6208006,-122.129759,"Washington"
"2581","alyssabramble1","Around",41.4816835,-81.8281446,"Ohio"
"2582","amanda_mazzuchi","Rochester Hills, MI",42.6583661,-83.1499322,"Michigan"
"2585","_Johairi","Raleigh, NC",35.7795897,-78.6381787,"North Carolina"
"2586","yea_imchelsea","Atlanta, GA",33.7489954,-84.3879824,"Georgia"
"2590","ffskeely","Oahu, HI",21.4389123,-158.0000565,"Hawaii"
"2591","MsDaisy108","Salt Lake City, UT",40.7607793,-111.8910474,"Utah"
"2594","FestiveFlannel","Houston, TX",29.7604267,-95.3698028,"Texas"
"2596","Wh00p_Ric0","Cleveland, OH",41.49932,-81.6943605,"Ohio"
"2598","KlugBotEn","Primp Town",33.5089723,-112.0357266,"Arizona"
"2602","MaganaJenessa","Texas, USA",31.9685988,-99.9018131,"Texas"
"2605","410_Native","Baltimore, MD",39.2903848,-76.6121893,"Maryland"
"2608","SWEETAthejuice","Pittsburgh",40.4406248,-79.9958864,"Pennsylvania"
