"","screenName","location","latitude","longitude","state"
"2","TheRealket_","804",46.4068561,-105.8477586,"Montana"
"3","DrHietanen","New York, USA",40.7127753,-74.0059728,"New York"
"4","lindamartinseng","Michigan",44.3148443,-85.6023643,"Michigan"
"5","KrisDoerschner","Beaver, PA",40.6953437,-80.3047846,"Pennsylvania"
"6","VivianJo1","SC",33.836081,-81.1637245,"South Carolina"
"9","MadMatt7783","Cleveland Ohio ",41.49932,-81.6943605,"Ohio"
"10","chasemcgowen","Keepin' it Weird in Austin, TX",30.271651,-97.757343,"Texas"
"11","greenhousemd","South Carolina",33.836081,-81.1637245,"South Carolina"
"12","vweric23","Spring, TX",30.0799405,-95.4171601,"Texas"
"13","enginerdmd","Marvel universe",27.5185306,-82.5417195,"Florida"
"14","HaygoodLaw","Odessa, TX",31.8456816,-102.3676431,"Texas"
"16","bestwishz","niagara falls",43.0962143,-79.0377388,"New York"
"17","Franklin_E_T","Arkansas, USA",35.20105,-91.8318334,"Arkansas"
"22","DrRaleighSpine","Raleigh, NC",35.7795897,-78.6381787,"North Carolina"
"27","BethPapaleo","NoLIta, Manhattan",40.7230413,-73.9948607,"New York"
"28","haley_schmaley","your dreams",34.1945158,-84.3066722,"Georgia"
"29","BobStemen","Boerne, TX (generally)",29.7946641,-98.7319703,"Texas"
"30","megdscott","Mississippi, USA",32.3546679,-89.3985283,"Mississippi"
"31","happy_meal41","Louisville, KY",38.2526647,-85.7584557,"Kentucky"
"32","Freeholdchiro","Freehold, NJ",40.2136754,-74.3000878,"New Jersey"
"33","PDXJenni","Portland, OR",45.5122308,-122.6587185,"Oregon"
"35","Sarah_Says__","Toledo, Ohio",41.6528052,-83.5378674,"Ohio"
"37","tialouease","Arkansas",35.20105,-91.8318334,"Arkansas"
"38","travisbyday","Accrual World",35.196606,-80.767434,"North Carolina"
"39","toppediatrician","St Petersburg, FL",27.7676008,-82.6402915,"Florida"
"43","ind3fatigable","in a strange place",38.93654,-94.384627,"Missouri"
"44","familybiznas","Norfolk, Va",36.8507689,-76.2858726,"Virginia"
"45","AndreaMG6788","Texas, USA",31.9685988,-99.9018131,"Texas"
"46","doctorMarkyMark","Atlanta, GA",33.7489954,-84.3879824,"Georgia"
"47","JillGrimesMD","Austin, TX",30.267153,-97.7430608,"Texas"
"48","MadaleineGray","Nashville, TN",36.1626638,-86.7816016,"Tennessee"
"50","tonyapb3","Iowa Falls, IA",42.5198868,-93.2645741,"Iowa"
"51","tworavensbrew","Newark, DE",39.6837226,-75.7496572,"Delaware"
"53","colorofyaenergy","Johnson City, TN",36.3134397,-82.3534727,"Tennessee"
"54","nataliefsx","Colorado, USA",39.5500507,-105.7820674,"Colorado"
"55","dellarants","Texas, USA",31.9685988,-99.9018131,"Texas"
"57","wpnofassdstrctn","Oklahoma, USA",35.0077519,-97.092877,"Oklahoma"
"58","dhoomonyou","Florida, USA",27.6648274,-81.5157535,"Florida"
"59","EBmedicine","Norcross, GA",33.9412127,-84.2135309,"Georgia"
"61","tamiflu__shrine","<U+4F1A><U+793E>",37.2691528,-95.5559753,"Kansas"
"62","acstaton","Huntsville, AL",34.7303688,-86.5861037,"Alabama"
"64","socie","Philadelphia, PA",39.9525839,-75.1652215,"Pennsylvania"
"65","PetersonJeffE","Anchorage, AK",61.2180556,-149.9002778,"Alaska"
"66","Southwest_Texan","Texas, USA",31.9685988,-99.9018131,"Texas"
"67","MegTheSavage","West Virginia, USA",38.5976262,-80.4549026,"West Virginia"
"68","mkashiouris","Richmond, VA",37.5407246,-77.4360481,"Virginia"
"74","jbavousett","1 AU from Sol, near Dallas",32.7766642,-96.7969879,"Texas"
"77","JudgeHopkins","Missouri, USA",37.9642529,-91.8318334,"Missouri"
"79","peeray4","Tennessee, USA",35.5174913,-86.5804473,"Tennessee"
"81","karenellen45","Florida's Space Coast",28.3542063,-80.7260209,"Florida"
"84","hua_zhong","San Jose, CA",37.3382082,-121.8863286,"California"
"86","Christa0003","Tennessee, USA",35.5174913,-86.5804473,"Tennessee"
"87","JCMentorMom","California, USA",36.778261,-119.4179324,"California"
"90","Maureenqueen","Houston",29.7604267,-95.3698028,"Texas"
"91","CaitlynMooneyMD","San Antonio, TX",29.4241219,-98.4936282,"Texas"
"93","ohiodisneydad","Ohio, USA",40.4172871,-82.907123,"Ohio"
"94","AttorneyUrso","Stamford, CT",41.0534302,-73.5387341,"Connecticut"
"95","FOX19Tricia","Cincinnati, OHIO",39.1031182,-84.5120196,"Ohio"
"96","SamMorgan621","Mountains",34.7328466,-98.7131984,"Oklahoma"
"98","PetalSettle","Reality",37.032872,-95.6318183,"Kansas"
"100","belindalacoste","Dallas, Texas",32.7766642,-96.7969879,"Texas"
"102","NightNurseSteph","Arkansas, USA",35.20105,-91.8318334,"Arkansas"
"103","lovemadle","Texas, USA",31.9685988,-99.9018131,"Texas"
"106","eksamhammer","Syracuse, NY",43.0481221,-76.1474244,"New York"
"107","DrvanTilburg","Chapel Hill, NC",35.9131996,-79.0558445,"North Carolina"
"108","EvyDimova","Clay, NY",43.1856814,-76.1717547,"New York"
"109","DrCJohns","Annapolis, MD",38.9784453,-76.4921829,"Maryland"
"110","nisssa_","Texas",31.9685988,-99.9018131,"Texas"
"111","chroniclateness","New York, New York",36.1023715,-115.1745559,"Nevada"
"112","Rustyg62","Tahlequah , Ok./ greenville Ms",35.91537,-94.969956,"Oklahoma"
"114","Kunzitoons","California, USA",36.778261,-119.4179324,"California"
"115","billredwine","Morehead, KY",38.1839705,-83.4326841,"Kentucky"
"116","ArikasRamblings","PNW, Washington, USA",47.7510741,-120.7401385,"Washington"
"117","xolovecourtneyy","New York",40.7127753,-74.0059728,"New York"
"118","katielachelle","Praying & Focusing",36.0520373,-95.956614,"Oklahoma"
"122","LeadChangeTrish","Los Angeles",34.0522342,-118.2436849,"California"
"124","LoriRuder","Cleveland, OH",41.49932,-81.6943605,"Ohio"
"125","OSUEMEdu","Columbus, OH",39.9611755,-82.9987942,"Ohio"
"126","RavingToyManiac","Sunny Colorado",38.8446032,-104.783748,"Colorado"
"127","mbuhtz","Massachusetts",42.4072107,-71.3824374,"Massachusetts"
"129","AL_Progressive","Atlanta, GA",33.7489954,-84.3879824,"Georgia"
"131","christophurious","San Diego, Ca",32.715738,-117.1610838,"California"
"134","xxdegausser","Baltimore, MD",39.2903848,-76.6121893,"Maryland"
"135","salliegoetsch","Oakley, CA (California Delta)",38.0062966,-121.7525413,"California"
"136","ConnorLee35","Norman, OK",35.2225668,-97.4394777,"Oklahoma"
"137","rclift61","Kentucky, USA",37.8393332,-84.2700179,"Kentucky"
"139","FuliginousS","Chicago, IL",41.8781136,-87.6297982,"Illinois"
"140","jamesgray0","Cincinnati, OH",39.1031182,-84.5120196,"Ohio"
"141","just_TINO","San Diego, CA",32.715738,-117.1610838,"California"
"142","PEMTweets","Cincinnati, OH",39.1031182,-84.5120196,"Ohio"
"143","perryboy2000","Viburnum, MO",37.7153239,-91.1351341,"Missouri"
"144","pharmacychecker","New York, NY",40.7127753,-74.0059728,"New York"
"145","steveathanas","Massachusetts, USA",42.4072107,-71.3824374,"Massachusetts"
"146","Addy_Lane","Northwest Arkansas",36.0148605,-94.2333355,"Arkansas"
"148","Chronicwatch","Marietta, GA",33.952602,-84.5499327,"Georgia"
"150","HonnyDipp","Roanoke, VA",37.2709704,-79.9414266,"Virginia"
"151","CLeighCook","Chattanooga, TN",35.0456297,-85.3096801,"Tennessee"
"152","GreedXbox1","Michigan, USA",44.3148443,-85.6023643,"Michigan"
"153","_BambisWorld","H-town",29.8348884,-95.3837448,"Texas"
"154","BEautifully_C","KY<U+2708><U+FE0F>LA",37.8393332,-84.2700179,"Kentucky"
"155","MarronMarvel","Arlington, VA",38.8816208,-77.0909809,"Virginia"
"156","KatMoski926","Chicago, IL",41.8781136,-87.6297982,"Illinois"
"159","TripBurg","Columbus, OH",39.9611755,-82.9987942,"Ohio"
"164","purrenrage","Alaska",64.2008413,-149.4936733,"Alaska"
"165","420lanie","Texas, USA",31.9685988,-99.9018131,"Texas"
"167","arthurchandra7","Sunnyvale, CA",37.36883,-122.0363496,"California"
"168","brooklynsbunch","Oklahoma, USA",35.0077519,-97.092877,"Oklahoma"
"169","gomer2323","Soldotna, Alaska",60.4877778,-151.0583332,"Alaska"
"170","nukonizm__","VRC",40.0377535,-75.5516878,"Pennsylvania"
"171","katie_stp","St. Paul / Isla Mujeres",44.9537029,-93.0899578,"Minnesota"
"173","JenBriney","Alameda, CA",37.7652065,-122.2416355,"California"
"174","SamanthaLava","Buffalo, NY",42.8864468,-78.8783689,"New York"
"175","AKMatty","Anchorage",61.2180556,-149.9002778,"Alaska"
"176","MunkeeRajah","Alaska, USA",48.7689565,-122.4443363,"Washington"
"177","EClaybrook26","Spring Hill,FL",28.4831682,-82.5369872,"Florida"
"178","mattstaggs","DC Metropolitan Area",39.1289725,-77.3783789,"Maryland"
"180","CSaski","New Baltimore, MI",42.6811436,-82.7368616,"Michigan"
"181","drcmgonzalez","El Paso, TX ",31.7618778,-106.4850217,"Texas"
"182","MeganReger","San Marcos, TX",29.8832749,-97.9413941,"Texas"
"183","gevans245","Birmingham, Alabama",33.5185892,-86.8103567,"Alabama"
"186","gschoser","South Florida",27.6648274,-81.5157535,"Florida"
"187","imkaylanicole","University of Kentucky",38.0306511,-84.5039697,"Kentucky"
"188","CheekyRaveness","Birdlandia, Iowa.",41.8780025,-93.097702,"Iowa"
"189","autumn_nicole17","Lynchburg, VA",37.4137536,-79.1422464,"Virginia"
"190","LadyJulie7","Seattle, WA",47.6062095,-122.3320708,"Washington"
"191","claytonforce","San Antonio, TX",29.4241219,-98.4936282,"Texas"
"192","crisamicone","Franklin, TN",35.9250637,-86.8688899,"Tennessee"
"196","PFlat2","Bryan, TX",30.6743643,-96.3699632,"Texas"
"197","NCPublicHealth","Raleigh, NC",35.7795897,-78.6381787,"North Carolina"
"198","CatieMacD","Memphis, TN",35.1495343,-90.0489801,"Tennessee"
"201","DJGlittertitts","Maryland, USA",39.0457549,-76.6412712,"Maryland"
"202","GianlucaZanna","Arizona",34.0489281,-111.0937311,"Arizona"
"203","AbbieATC","Cincinnati, Ohio",39.1031182,-84.5120196,"Ohio"
"204","Angelawoodall44","Chumuckla Fl",30.777332,-87.235985,"Florida"
"205","Spencer4fire","Boston, MA",42.3600825,-71.0588801,"Massachusetts"
"206","mothmoo","Scottsdale, AZ",33.4941704,-111.9260519,"Arizona"
"208","texasinafrica","Scenic Maine",43.6561122,-70.2529192,"Maine"
"213","JanieLanham8","KTown",40.7477385,-73.9868938,"New York"
"221","KRIS6News","Corpus Christi, Texas",27.8005828,-97.396381,"Texas"
"224","alana_margaret","Seattle, WA",47.6062095,-122.3320708,"Washington"
"227","CaroleMartin","Knoxville, TN USA",35.9606384,-83.9207392,"Tennessee"
"228","Whirledpeas4me","In a galaxy far far away  ",28.385233,-81.563874,"Florida"
"229","388shark","Santa Clarita, CA",34.3916641,-118.542586,"California"
"230","Lisa_Spooner","Chicago Burbs",41.7435073,-88.0118473,"Illinois"
"231","jaxwax04","Florida, USA",27.6648274,-81.5157535,"Florida"
"233","mandymajors","Texas, USA",31.9685988,-99.9018131,"Texas"
"234","JohannaMarcia01","California, USA",36.778261,-119.4179324,"California"
"235","Mr_Rutherford","Knoxville, TN",35.9606384,-83.9207392,"Tennessee"
"236","BuckeyeSquadron","Columbus, Ohio",39.9611755,-82.9987942,"Ohio"
"237","mehfisto","orange county, california",33.7174708,-117.8311428,"California"
"238","EmmaSpecter","nyc",40.7127753,-74.0059728,"New York"
"239","juliekiel","Owatonna, Minnesota",44.0855572,-93.2259349,"Minnesota"
"240","hannwhitee","chatt ",35.0180118,-85.2825358,"Tennessee"
"241","MindySW","Suburbs of Cincinnati",39.1069609,-84.5116011,"Ohio"
"243","carogonza","Wilmington, North Carolina, USA",34.2103894,-77.8868117,"North Carolina"
"244","UnitedStatesOfQ","Norwalk, CT",41.117744,-73.4081575,"Connecticut"
"245","skyenmclain","The Woodlands, TX",30.1658207,-95.4612625,"Texas"
"246","jazzgotsoul","vegas",36.1699412,-115.1398296,"Nevada"
"247","SwiftWriter","Novato, California",38.1074198,-122.5697032,"California"
"249","NChardonnet","Saint Louis",38.6270025,-90.1994042,"Missouri"
"250","RA_Maldo","Portland, OR",45.5122308,-122.6587185,"Oregon"
"251","deborah91473","St Louis",38.6270025,-90.1994042,"Missouri"
"253","2casey451","Vermont",44.5588028,-72.5778415,"Vermont"
"254","Southviabirth","The Old Dominion ",37.4315734,-78.6568942,"Virginia"
"256","bytekast","Boulder, CO",40.0149856,-105.2705456,"Colorado"
"258","erikalmurray","Texas, USA",31.9685988,-99.9018131,"Texas"
"259","PittieBoo","Dante’s Inferno ",41.4997109,-81.7065365,"Ohio"
"260","mlerwinn","West Virginia",38.5976262,-80.4549026,"West Virginia"
"261","Doll_Legs","Land of the Flowers and Angels",41.6521348,-70.2133622,"Massachusetts"
"262","stabyoulots","West Virginia, USA",38.5976262,-80.4549026,"West Virginia"
"264","HappyManor","Granite State",43.1938516,-71.5723953,"New Hampshire"
"265","johndeeryband","Austin, TX",30.267153,-97.7430608,"Texas"
"267","_austinsydney","LA <U+269C><U+FE0F>",34.0522342,-118.2436849,"California"
"268","AviBhar","Macon, GA",32.8406946,-83.6324022,"Georgia"
"270","PrinceGYfan","Texas, USA ",31.9685988,-99.9018131,"Texas"
"275","HarvardDr","Boston, MA",42.3600825,-71.0588801,"Massachusetts"
"276","ImLiterallyLily","fort collins, co",40.5852602,-105.084423,"Colorado"
"277","SarannaDeWylde","Kansas",39.011902,-98.4842465,"Kansas"
"278","RBJohnsonII","Alabama",32.3182314,-86.902298,"Alabama"
"283","MarAnnSum","Kansas, USA",39.011902,-98.4842465,"Kansas"
"284","nathanand","Colorado, USA",39.5500507,-105.7820674,"Colorado"
"285","CrawfordAMC","San Francisco",37.7749295,-122.4194155,"California"
"287","Oconnellryan","Kansas City, MO",39.0997265,-94.5785667,"Missouri"
"289","CandaceCombs","Oklahoma City, OK",35.4675602,-97.5164276,"Oklahoma"
"290","momnkc18","Pennsylvania, USA",41.2033216,-77.1945247,"Pennsylvania"
"291","CovfefeAnd","Central Cali",36.9915398,-119.7889248,"California"
"292","bgrube18","Hamburg, NY",42.7158927,-78.8294768,"New York"
"293","sccadmedic","St. Charles County, MO",38.7338885,-90.8294002,"Missouri"
"295","heatherpeno","Stateless",40.0083495,-105.2579263,"Colorado"
"296","Shanna_Marzilli","Rhode Island",41.5800945,-71.4774291,"Rhode Island"
"297","theBSinBSN"," Parts Unknown",32.7541798,-97.3322299,"Texas"
"299","Soutthpaw","Sparks, NV",39.5349112,-119.7526886,"Nevada"
"304","Koedel526","Michigan, USA",44.3148443,-85.6023643,"Michigan"
"305","TR1N1TY3","Chicago, IL",41.8781136,-87.6297982,"Illinois"
"306","mnrmg","Cedar Falls, Iowa",42.5348993,-92.4453161,"Iowa"
"307","TCLocketLove","Connecticut, USA",41.6032207,-73.087749,"Connecticut"
"310","behindthenet","San Francisco, CA",37.7749295,-122.4194155,"California"
"313","kml4694","The Mitten State",44.3148443,-85.6023643,"Michigan"
"314","jayhawkrx93","Kansas",39.011902,-98.4842465,"Kansas"
"315","Jasmine_Sharee","Wherever God & dreams take me",42.95076,-85.6363739,"Michigan"
"317","KendalSheppard","Pacific Northwest",45.5272148,-122.6779081,"Oregon"
"320","Texastine","Houston, Texas, USA",29.7604267,-95.3698028,"Texas"
"321","cordelia__w","My Old Kentucky Home",37.8069259,-85.4564599,"Kentucky"
"324","_livingfree","Northeastern Florida, U.S.",29.95439,-81.3428916,"Florida"
"325","MsKaty","Western Kentucky",36.9853543,-86.456138,"Kentucky"
"326","Connigrantphoto","richmond virginia",37.5407246,-77.4360481,"Virginia"
"327","Bpramos80","Florida, USA",27.6648274,-81.5157535,"Florida"
"329","NJanitz","Jacksonville, N.C. ",34.7540524,-77.4302414,"North Carolina"
"331","arsalanhahsmi","Brooklyn, NY",40.6781784,-73.9441579,"New York"
"333","starsareblack","West Coast",62.4113634,-149.0729714,"Alaska"
"335","SeeBeeSea","Virginia",37.4315734,-78.6568942,"Virginia"
"336","SteveTrush","Oakland, CA",37.8043637,-122.2711137,"California"
"337","terrysimpson","Arizona and Alaska",34.0489281,-111.0937311,"Arizona"
"339","AtMuncie","Where ever you are",42.790719,-83.72064,"Michigan"
"340","PJM143","Boston, MA<U+0001F3C6><U+0001F3C6><U+0001F3C6><U+0001F3C6><U+0001F3C6><U+0001F3C6>SIX<U+2764><U+FE0F><U+0001F499>",42.3600825,-71.0588801,"Massachusetts"
"342","AndyLeeParker1","Portland, Oregon",45.5122308,-122.6587185,"Oregon"
"344","bronco7732"," Brooklyn, NY",40.6781784,-73.9441579,"New York"
"345","PartPurple","Raleigh, NC",35.7795897,-78.6381787,"North Carolina"
"346","JJComfortDog","Oregon, USA",43.8041334,-120.5542012,"Oregon"
"347","ucantstop_me","around",41.4816835,-81.8281446,"Ohio"
"348","flinstoneski","not far",42.726053,-88.5424226,"Wisconsin"
"350","leronford","Rock Hill, SC",34.9248667,-81.0250784,"South Carolina"
"352","KAM4Texas","Deep in the <U+2764><U+FE0F> of Texas !",31.9685988,-99.9018131,"Texas"
"356","MysticMeerkat","The Lobby",40.4212783,-86.9136068,"Indiana"
"357","HaY_RaY","Benton, AR",34.5645371,-92.586828,"Arkansas"
"358","jejackson64","Denver",39.7392358,-104.990251,"Colorado"
"359","opabinia_seabug","Clay County, MO",39.3176186,-94.479976,"Missouri"
"360","jonboy0217","915 El Chuco",31.8554093,-106.436848,"Texas"
"361","sentimentlrobot","Los Angeles, CA",34.0522342,-118.2436849,"California"
"362","guitargirl0723","Corbin, KY",36.9486986,-84.0968761,"Kentucky"
