"","screenName","location","latitude","longitude","state"
"1","Andrelinu","Nowhere",40.7317696,-73.9841161,"New York"
"2","lilheirs","Minneapolis, MN",44.977753,-93.2650108,"Minnesota"
"3","PPFerguson314","Ferguson, MO",38.7442175,-90.3053915,"Missouri"
"6","poeknowskc","Kansas City, MO",39.0997265,-94.5785667,"Missouri"
"8","CourtLouisee_","Bolton ",44.3726476,-72.8787625,"Vermont"
"10","hdlamey","Kentucky",37.8393332,-84.2700179,"Kentucky"
"13","pureheart421","Mansura",31.0579664,-92.049012,"Louisiana"
"14","alistasi","Los Angeles, CA",34.0522342,-118.2436849,"California"
"16","BraekHaven","Charlotte, NC",35.2270869,-80.8431267,"North Carolina"
"17","Immunize_USA","Houston, TX",29.7604267,-95.3698028,"Texas"
"18","logansaysyee","Atlanta, GA",33.7489954,-84.3879824,"Georgia"
"20","profworr","Seattle, WA",47.6062095,-122.3320708,"Washington"
"21","PelhamPatch","Pelham , NY",40.9098215,-73.8079111,"New York"
"22","YorktownPatch","Yorktown, NY",41.2625965,-73.8183804,"New York"
"23","TarrytownsPatch","Tarrytown, NY",41.0762077,-73.8587461,"New York"
"24","RivertownsPatch","Hastings-on-Hudson, NY",40.994542,-73.8787461,"New York"
"25","BronxvillePatch","Bronxville, NY",40.9381544,-73.8320784,"New York"
"26","NyackPatch","Nyack & Piermont, NY",41.0906519,-73.9179146,"New York"
"27","PvillePatch","Briarcliff Manor/Pleasantville",41.1494143,-73.8296372,"New York"
"28","HussonSpectator","Bangor, ME",44.8016128,-68.7712257,"Maine"
"29","TerrySc24806954","Georgetown, KY",38.2097967,-84.5588311,"Kentucky"
"31","sabphipps","540",36.180133,-94.190149,"Arkansas"
"33","WanderssonR","Capital Federal",37.2228318,-95.7103362,"Kansas"
"34","queenammilada","Pearl of the Orient",41.4823117,-81.8368625,"Ohio"
"36","smith1981_smith","Oklahoma, USA",35.0077519,-97.092877,"Oklahoma"
"37","leishizzle","Honolulu, HI",21.3069444,-157.8583333,"Hawaii"
"38","TheInsaneRobin","Chicago",41.8781136,-87.6297982,"Illinois"
"39","Ren0eNVy","Reno, NV",39.5296329,-119.8138027,"Nevada"
"40","BadGirlFee__","Houston, TX",29.7604267,-95.3698028,"Texas"
"42","daschaser","Johnson City, TN",36.3134397,-82.3534727,"Tennessee"
"43","meagan_clements","on your mind",25.9046798,-80.3262284,"Florida"
"44","PeekskillPatch","Peekskill, NY",41.2900939,-73.9204158,"New York"
"45","PChesterPatch","New York",40.7127753,-74.0059728,"New York"
"46","NewRoPatch","New Rochelle, NY",40.9114882,-73.7823549,"New York"
"47","SoutheastPatch","Brewster, NY",41.3973163,-73.6170721,"New York"
"48","TheRealket_","804",46.4068561,-105.8477586,"Montana"
"49","NanuetPatch","Nanuet, NY",41.0887073,-74.013473,"New York"
"50","FrancisLake1","New England",43.9653889,-70.8226541,"Maine"
"51","TheSciBabe","Oakland, CA",37.8043637,-122.2711137,"California"
"52","sofiebatt","Denton, TX",33.2148412,-97.1330683,"Texas"
"53","MarketingMitch2","Harlem, NY",40.8115504,-73.9464769,"New York"
"54","DrHietanen","New York, USA",40.7127753,-74.0059728,"New York"
"55","flawsnalll_","Kentucky, USA",37.8393332,-84.2700179,"Kentucky"
"57","Baii95","Oklahoma, USA",35.0077519,-97.092877,"Oklahoma"
"58","altaria999","she",36.159905,-95.9894529,"Oklahoma"
"59","lrl0929","713 | 281 | 832",29.7702071,-95.4078111,"Texas"
"60","KatTap17","Tiverton, RI",41.6259211,-71.2134231,"Rhode Island"
"62","MomsTEAM","Worldwide",36.249758,-95.266826,"Oklahoma"
"63","NewCityPatch","New City, NY",41.1475954,-73.989306,"New York"
"64","MidHudsonPatch","Mid Hudson Valley, NY",41.4550678,-74.3924483,"New York"
"65","WASHBURNSHS","1700 S.W. College Topeka, Ks",39.03334,-95.701567,"Kansas"
"68","Mancinoagency","5473 Flanagan Road, Marcy, NY",43.1269781,-75.2376283,"New York"
"69","WeAreBlood","Austin, TX",30.267153,-97.7430608,"Texas"
"70","hntmcl","Central Michigan University",43.5819086,-84.7756364,"Michigan"
"76","keiLIMEpie_","twitter.",37.7764685,-122.4172004,"California"
"78","cutehijazi","nc",35.7595731,-79.0192997,"North Carolina"
"79","OklaIndepedent","Oklahoma BOOMER SOONER!",35.2058936,-97.4457137,"Oklahoma"
"80","idonthavebirds","GTI ",40.7163535,-111.88924,"Utah"
"82","theprettyboijoe","New York, USA",40.7127753,-74.0059728,"New York"
"84","PearlRiverPatch","Pearl River, New York",41.0589855,-74.0218063,"New York"
"85","ScarsdalePatch","Scarsdale, NY",41.0050977,-73.7845768,"New York"
"86","mimirand10","Corpus Christi, TX",27.8005828,-97.396381,"Texas"
"88","cpslwhittington","Chocowinity, NC",35.5126631,-77.1005091,"North Carolina"
"89","AdiMor0","Sacramento, CA",38.5815719,-121.4943996,"California"
"90","northjersey","New Jersey",40.0583238,-74.4056612,"New Jersey"
"91","WhatTheFFacts","Worldwide",36.249758,-95.266826,"Oklahoma"
"92","dj_ewi","dallas, texas",32.7766642,-96.7969879,"Texas"
"93","HoffmanJess","Seattle, WA",47.6062095,-122.3320708,"Washington"
"94","Kakskiii","Louisiana, USA",30.9842977,-91.9623327,"Louisiana"
"97","evarin_AAN","Aberdeen, SD",45.4646985,-98.4864829,"South Dakota"
"98","DeChalaca","Perú",-9.189967,-75.015152,"South Dakota"
"99","Herbiegibbs","Houston, TX",29.7604267,-95.3698028,"Texas"
"101","theratterreesmc","California, USA",36.778261,-119.4179324,"California"
"102","Pastordres","Jacksonville, Florida",30.3321838,-81.655651,"Florida"
"104","shanequick4ms","Upper Miss'ippi",38.9002728,-90.6538904,"Missouri"
"107","DrCJohns","Annapolis, MD",38.9784453,-76.4921829,"Maryland"
"108","kkxthleen","Honolulu, HI",21.3069444,-157.8583333,"Hawaii"
"110","forever_ens","Mississippi, USA",32.3546679,-89.3985283,"Mississippi"
"112","SmarkSister","Ohio, USA",40.4172871,-82.907123,"Ohio"
"114","mmeyer3","Aptos, CA",36.9771729,-121.8994016,"California"
"116","JR4_07","Harlem",40.8115504,-73.9464769,"New York"
"117","anamericanlion","Texas, USA",31.9685988,-99.9018131,"Texas"
"120","saphirablue84","Austin, TX",30.267153,-97.7430608,"Texas"
"122","Meg_Lucero","Texas, USA",31.9685988,-99.9018131,"Texas"
"123","BIGGGTIYE","CA$HVILLE",36.1642169,-86.7807573,"Tennessee"
"124","tatianaalvizo","TX",31.9685988,-99.9018131,"Texas"
"127","emilycheath","Exeter, NH",42.9814292,-70.9477546,"New Hampshire"
"128","SportsCountryIR","Middletown, CT",41.5623209,-72.6506488,"Connecticut"
"129","KBSX915","Boise, Idaho",43.6150186,-116.2023137,"Idaho"
"130","Mandozeeee","San Antonio, TX",29.4241219,-98.4936282,"Texas"
"131","JanzaBlake","Manhattan Beach, CA",33.8847361,-118.4109089,"California"
"132","HarrisonPatch","Harrison, NY",40.9700171,-73.7176337,"New York"
"134","SeaveyLacy","Utah, USA",39.3209801,-111.0937311,"Utah"
"136","trainmime","lion city",33.0424186,-96.7342812,"Texas"
"137","brittanyeaa","la x ie",33.9415889,-118.40853,"California"
"140","paulsbruce","/dev/null",38.005187,-84.517628,"Kentucky"
"144","Tville_Times","Taylorsville, NC, USA",35.9216748,-81.1768813,"North Carolina"
"146","AndradeCaio03","Beverly Hills, CA",34.0736204,-118.4003563,"California"
"147","_Bella__Faith","Gillette, WY",44.2910915,-105.5022205,"Wyoming"
"148","marmoranblade","Hogwarts | she/her | ANTI",28.4722475,-81.4736377,"Florida"
"149","nonumilk","hell",42.43472,-83.985,"Michigan"
"150","flu_gabizinhaa","SG",1.352083,103.819836,"Michigan"
"151","sarahjs705","Earth",37.2321077,-95.7243335,"Kansas"
"152","orlandosports","Orlando, FL",28.5383355,-81.3792365,"Florida"
"153","friendshaolin","Ewa Beach, Ladyworld",21.313149,-158.0089992,"Hawaii"
"156","cnhiott","Monroe, NC",34.9854275,-80.5495112,"North Carolina"
"159","MRNES","dirty jerz",42.3770029,-71.1166601,"Massachusetts"
"161","DignityHealthCC","Central Coast, CA",35.6368759,-120.6545022,"California"
"162","Crazyloc123","San Diego",32.715738,-117.1610838,"California"
"163","zoeeedayne","Natchitoches, LA",31.7607195,-93.0862749,"Louisiana"
"164","busbeeallie","Atlanta, GA",33.7489954,-84.3879824,"Georgia"
"165","TEA_teachers","Nashville, TN",36.1626638,-86.7816016,"Tennessee"
"168","MeshaS_91","South Carolina, USA",33.836081,-81.1637245,"South Carolina"
"170","Mr_Piv1127","Brick, NJ",40.0578384,-74.1371832,"New Jersey"
"172","LuLuzzzTweetzzz","California, trabuco canyon
",33.6655081,-117.5869862,"California"
"173","CameronBoston3","Reno, NV",39.5296329,-119.8138027,"Nevada"
"175","_____nichole","New Jersey, USA",40.0583238,-74.4056612,"New Jersey"
"177","jdink161","Desert Hot Springs, CA",33.961124,-116.5016784,"California"
"179","Saabrina_nicole","Long Beach, CA",33.7700504,-118.1937395,"California"
"180","1998VIVID","New Jersey, USA",40.0583238,-74.4056612,"New Jersey"
"183","_ashleejohnson","Florida ",27.6648274,-81.5157535,"Florida"
"184","NJConservative_","New Jersey",40.0583238,-74.4056612,"New Jersey"
"185","famfightflu","Arlington, VA",38.8816208,-77.0909809,"Virginia"
"188","trextr","Winona",44.0553908,-91.6663523,"Minnesota"
"189","yoojinseul","mel nick",40.316473,-76.421159,"Pennsylvania"
"190","Vasectomysaurus","Des Moines, IA, USA",41.5868353,-93.6249593,"Iowa"
"191","IDSE_Online","New York, NY",40.7127753,-74.0059728,"New York"
"192","LongfootKimmy","Courtdale, PA",41.280081,-75.9121418,"Pennsylvania"
"193","Hannahm3Morse","Illinois, USA",40.6331249,-89.3985283,"Illinois"
"194","trawessmi","Michigan, USA",44.3148443,-85.6023643,"Michigan"
"196","COLLING_TON","Baltimore ",39.2903848,-76.6121893,"Maryland"
"197","V_5sostommo","SF ",37.7749295,-122.4194155,"California"
"198","heartlessfabi","210 TX",29.6105901,-98.3233381,"Texas"
"199","DungeonPagan","Spokane, WA",47.6587802,-117.4260465,"Washington"
"200","katchalfant10","757 <U+27A1><U+FE0F> Blacksburg",37.2295733,-80.4139393,"Virginia"
"201","_Adrianna_Lima","Minneapolis, MN",44.977753,-93.2650108,"Minnesota"
"203","LilBoy_Fresh","Chicago, IL <U+0001F303>",41.8781136,-87.6297982,"Illinois"
"204","daveaustinbooks","Fayetteville, AR",36.082156,-94.1718542,"Arkansas"
"206","Starzzss1","Loxley Alabama",30.6182476,-87.7530454,"Alabama"
"207","TimothyMariotti","NJ / Philly ",39.9496091,-75.1628833,"Pennsylvania"
"208","kmerian","Texas",31.9685988,-99.9018131,"Texas"
"211","Derek_Timothy","on the sofa ",39.3999715,-76.5708202,"Maryland"
"212","TPRSource","San Antonio, TX",29.4241219,-98.4936282,"Texas"
"213","zachmprice","Los Angeles, CA",34.0522342,-118.2436849,"California"
"214","ttrevorkk","Tulsa, Ok",36.1539816,-95.992775,"Oklahoma"
"216","VonnieDeluxe","Portland, OR",45.5122308,-122.6587185,"Oregon"
"220","jacksonhroberts","Southlake, TX",32.9412363,-97.1341783,"Texas"
"221","Rmchaircoach","Ohio, USA",40.4172871,-82.907123,"Ohio"
"222","Chapmanlady17","Franklin, NC",35.1823171,-83.3815429,"North Carolina"
"226","JRGlassJr","Menifee, CA",33.6971468,-117.185294,"California"
"228","whit_its","NoWhere Town, Tennessee",35.5174913,-86.5804473,"Tennessee"
"233","NotAnotherNick","Indianapolis, IN",39.768403,-86.158068,"Indiana"
"234","breaks_dj","Century City WLA",34.0536608,-118.4133894,"California"
"235","jaylamarshae","Talladega, AL",33.4359416,-86.1058048,"Alabama"
"237","philosopherstew","Ontario, CA. Ethicist Veganism",34.0633443,-117.6508876,"California"
"239","TLAMashley","Chicago, IL",41.8781136,-87.6297982,"Illinois"
"241","jamieee_77","Colorado, USA",39.5500507,-105.7820674,"Colorado"
"243","coldpizzaparty","la lune",33.7840564,-118.1842709,"California"
"245","Rhynism","In my awesome shelter :D",40.979139,-75.1779154,"Pennsylvania"
"247","juanvillela94","Browsnville Texas",25.9017472,-97.4974838,"Texas"
"248","theswedishammer","Rhode Island, USA",41.5800945,-71.4774291,"Rhode Island"
"249","fivehorizons","Maplewood, MN, United States",44.9530215,-92.9952153,"Minnesota"
"250","DrNancyM_CDC","Atlanta, GA",33.7489954,-84.3879824,"Georgia"
"252","BahensMaria","ZO",42.3592347,-71.055331,"Massachusetts"
"253","bbttychmbrs1","Houston Texas",29.7604267,-95.3698028,"Texas"
"255","AngelTownn","Across the tracks, Texas",30.710757,-94.9340715,"Texas"
"256","Shekimber1","Marietta, OH",39.415352,-81.4548436,"Ohio"
"260","saadiqa_xo","middle earth",33.6446621,-117.8370968,"California"
"261","Tam_Ciuk","another dimension ",37.5621968,-97.2736137,"Kansas"
"262","Apollostowel","Helsinki, Finland",60.1698557,24.9383791,"Kansas"
"264","UsaLoj","Hamilton, OH",39.3995008,-84.5613355,"Ohio"
"265","Dallasinformer","Dallas",32.7766642,-96.7969879,"Texas"
"266","sandrahuggins24","Global",37.0329949,-95.6400855,"Kansas"
"267","SFWarriorNation","Oakland, CA",37.8043637,-122.2711137,"California"
"269","evanorax","Manhattan, NY",40.7830603,-73.9712488,"New York"
"270","ErectoPatronum","east coast",37.2101063,-93.2529989,"Missouri"
"272","tppeters11","Indiana",40.2671941,-86.1349019,"Indiana"
"274","AriellaJarhreeL","New York-London-Tokyo-Seol-LA",40.7127753,-74.0059728,"New York"
"276","GoldennShayy","Country Ass Mississippi",32.3546679,-89.3985283,"Mississippi"
"277","knyves_escobar","D(M)V",37.1704425,-94.8431963,"Kansas"
"278","dms3tv","Nashville, TN",36.1626638,-86.7816016,"Tennessee"
"279","Dryybonesboy","Hell",42.43472,-83.985,"Michigan"
"281","SterlingThrill","Queen City",35.2270869,-80.8431267,"North Carolina"
"282","amisco12","Blackhawk, CA",37.8182488,-121.9074859,"California"
"283","ashleybailey95","Chesapeake Beach, MD",38.6947907,-76.5336539,"Maryland"
"284","ak_leeg","Oneonta, NY",42.4528571,-75.0637746,"New York"
"285","NihilisticNerd","Monches, WI",43.1911167,-88.3437069,"Wisconsin"
"287","rmacieira","New York, USA",40.7127753,-74.0059728,"New York"
"289","Cadryskitchen","Iowa, USA",41.8780025,-93.097702,"Iowa"
"290","greenfarmjuice","Blue Ash, OH",39.2320029,-84.3782734,"Ohio"
"291","jaylen_leah","Greensboro, NC",36.0726354,-79.7919754,"North Carolina"
"292","mightydesperado","the ends of the earth",26.627731,-81.872003,"Florida"
"293","A1CleaningSJ","San Jose CA.",37.3382082,-121.8863286,"California"
"295","Chidoootf","Dallas, TX",32.7766642,-96.7969879,"Texas"
"298","MollieeWalkerr","NJ <U+27A1><U+FE0F> MA",40.0583238,-74.4056612,"New Jersey"
"299","kween_kylee","California",36.778261,-119.4179324,"California"
"304","AceYungeen","Fort Wayne, IN",41.079273,-85.1393513,"Indiana"
"307","donlinka","Twinsburg, OH, USA",41.3125552,-81.4401129,"Ohio"
"310","danielmcfadin","Charlotte, NC",35.2270869,-80.8431267,"North Carolina"
"313","BlackTKN","Georgia, USA",32.1656221,-82.9000751,"Georgia"
"315","Queen_Miso","NYC",40.7127753,-74.0059728,"New York"
"316","JRBSFX","Portland, OR",45.5122308,-122.6587185,"Oregon"
"317","meredithpardue","Austin, TX",30.267153,-97.7430608,"Texas"
"318","DAGGER_DICKK","cryin in pa",40.4893637,-80.0177996,"Pennsylvania"
"319","CruzNPets","Southern California",34.9592083,-116.419389,"California"
"321","armsivilli","Chicago, IL",41.8781136,-87.6297982,"Illinois"
"325","BoironUSA","Newtown Square, Pa.",39.9868904,-75.4007058,"Pennsylvania"
"326","MelliBitch","Carlisle, PA",40.2010241,-77.2002745,"Pennsylvania"
"327","DjMarteeMcfly","Ohio, USA",40.4172871,-82.907123,"Ohio"
"329","Jeannie_Uphold","Ohiopyle, Pa",39.871742,-79.4922606,"Pennsylvania"
"331","AnonAlexTheGr8","Grand Rapids, MI",42.9633599,-85.6680863,"Michigan"
"332","ThaisMattosffc","Rj",32.781616,-96.8070186,"Texas"
"334","sakumodoesstuff","Mississippi, USA",32.3546679,-89.3985283,"Mississippi"
"335","RachAnnSteele","Indiana, USA",40.2671941,-86.1349019,"Indiana"
"336","JoshZamboniGuy","West Coasting",34.1921786,-118.3333074,"California"
"340","tylmel","Starkville, MS",33.4503998,-88.8183872,"Mississippi"
"342","karenjaco1","Norman, OK",35.2225668,-97.4394777,"Oklahoma"
"343","raiwndrops","ariana grande.",32.6162452,-116.9971762,"California"
"345","charlotteatepie","NYC & PHL",40.7127753,-74.0059728,"New York"
"347","Cherbearlite","Pennsylvania, USA",41.2033216,-77.1945247,"Pennsylvania"
"348","SuzanneSuchan","Orchard Park, NY",42.7675323,-78.7440921,"New York"
"349","emissarysounds","SLC",40.7607793,-111.8910474,"Utah"
"350","ASOM233334","Chicago",41.8781136,-87.6297982,"Illinois"
"351","FistofNietzsche","Atlanta",33.7489954,-84.3879824,"Georgia"
"352","xWAKODAx","Ohio, USA",40.4172871,-82.907123,"Ohio"
"353","TheUrbanNewz","world wide",36.249758,-95.266826,"Oklahoma"
"356","aurabogado","Oakland, CA",37.8043637,-122.2711137,"California"
"360","SaTonyaFord","Little Rock, Arkansas ",34.7464809,-92.2895948,"Arkansas"
"361","Marymalinaxoxo","San Antonio, TX",29.4241219,-98.4936282,"Texas"
"364","Jaygotti063","in my bag ",39.9649391,-75.2769154,"Pennsylvania"
"365","Aviation_Jerry","Ahwatukee, Arizona",33.3122624,-112.0357137,"Arizona"
"366","bekkamomekka","New Zealand",-40.900557,174.885971,"Arizona"
"367","bipolarJH","Alabama, USA",32.3182314,-86.902298,"Alabama"
"368","loganbrookeee21","Conway, SC",33.8360034,-79.0478143,"South Carolina"
"370","ouunahh","Abbeville, La",29.9746502,-92.1342921,"Louisiana"
"371","joyerxox","Barbados",13.193887,-59.543198,"Louisiana"
"372","therealjmichael","Dallas, Texas",32.7766642,-96.7969879,"Texas"
"373","kayleeisyounng","Fishers, IN",39.9567548,-86.01335,"Indiana"
"374","staciebirdwynne","Salt Lake City, UT",40.7607793,-111.8910474,"Utah"
"375","SilverSummerSun","God's Country, TX",29.425072,-99.153286,"Texas"
"376","_splashious_","Anywhere but here",47.845864,-122.2931649,"Washington"
"379","Magssca","Las Vegas, California <U+0001F5E3>",36.1732952,-115.1446128,"Nevada"
"380","centralmalltxk","Texarkana, Texas",33.425125,-94.0476882,"Texas"
"381","StephanieisLive","Cleveland! ",41.49932,-81.6943605,"Ohio"
"383","triviz_marisa","las cruces ",32.3199396,-106.7636538,"New Mexico"
"384","lokyee_11","Junction, TX",30.4893555,-99.7720109,"Texas"
"385","GurtejSekhon9","Tracy, CA",37.7396513,-121.4252227,"California"
"386","imjulioh","Houma, LA",29.5957696,-90.7195348,"Louisiana"
"389","Micah_Leee","Ur mom’s house ",39.7367329,-104.9794787,"Colorado"
"390","annagrace_k","Hammond, LA",30.5043583,-90.4611995,"Louisiana"
"393","jmanoreal","Philadelphia, PA",39.9525839,-75.1652215,"Pennsylvania"
"395","GayathriKWrites","Bay Area, CA, USA",37.8271784,-122.2913078,"California"
"396","COMFOODPANTRY","Tampa, FL",27.950575,-82.4571776,"Florida"
"398","halfbloodtonks_","Little Rock, AR",34.7464809,-92.2895948,"Arkansas"
"399","ECCooperative","Eau Claire, WI",44.811349,-91.4984941,"Wisconsin"
"400","haileynikolee","arkansas",35.20105,-91.8318334,"Arkansas"
"404","mslizlord","Omaha, NE",41.2565369,-95.9345034,"Nebraska"
"407","Vegetarianbeau2","Alabama, USA",32.3182314,-86.902298,"Alabama"
"410","Arts_Timber","Virginia, USA",37.4315734,-78.6568942,"Virginia"
"412","CookieKCrumb","Cookie Land",40.6235204,-73.9911054,"New York"
"415","zamenhofsmuse","New York, NY",40.7127753,-74.0059728,"New York"
"416","hoodrichdavec","Orlando, FL",28.5383355,-81.3792365,"Florida"
"422","__heverton","Brooklyn, NY",40.6781784,-73.9441579,"New York"
"423","dmcisternas","Huron, OH",41.3950489,-82.5551733,"Ohio"
"424","HayCreed","Forsyth, GA",33.0342974,-83.938242,"Georgia"
"425","cursethedark","Sioux Falls, SD",43.5473028,-96.728333,"South Dakota"
"428","NamasteLight","Universal Mind",39.7507081,-104.9942739,"Colorado"
"429","zaynwhy","ffc",41.9107382,-87.6529168,"Illinois"
"430","TomLutey","Billings, MT",45.7832856,-108.5006904,"Montana"
"431","huritKay","336",40.7821738,-73.9824284,"New York"
"435","peterap84","Temescal Valley, CA",33.762796,-117.4853231,"California"
"436","kay_fendi","Valdosta, GA",30.8327022,-83.2784851,"Georgia"
"438","mollymarie03","Kansas City",39.0997265,-94.5785667,"Missouri"
"440","travisbyday","Accrual World",35.196606,-80.767434,"North Carolina"
"441","MAGAat24fps","Florida, USA",27.6648274,-81.5157535,"Florida"
"442","Floidberger","On The Move ",36.1680847,-95.8301781,"Oklahoma"
"444","scharms1962","Flint, TX",32.2040437,-95.3485635,"Texas"
"445","jenniferlove_","San Diego, CA",32.715738,-117.1610838,"California"
"447","jaylahleonette","Tyler, Texas",32.3512601,-95.3010624,"Texas"
"451","RealJoel4","Front street",38.5705854,-121.5104865,"California"
"453","madelynbrown15","elton, louisiana",30.4813125,-92.6956982,"Louisiana"
"454","kizzayyyy","Jackson, Ms",32.2987573,-90.1848103,"Mississippi"
"458","eljsha","Pembroke",34.6801626,-79.1950373,"North Carolina"
"459","malania_","Oklahoma ",35.0077519,-97.092877,"Oklahoma"
"464","xsmilesideways_","Nashville, TN",36.1626638,-86.7816016,"Tennessee"
"466","painterskies","virginia, usa",37.4315734,-78.6568942,"Virginia"
"471","_RachealBaby","St Louis, MO",38.6270025,-90.1994042,"Missouri"
"472","chelsea022703","livin",37.8292233,-97.3713567,"Kansas"
"473","heonymint","no where ",40.7317696,-73.9841161,"New York"
"476","loganpgolden","Hell",42.43472,-83.985,"Michigan"
"477","palmbeachpink","by the sea.....",41.2788808,-72.8069247,"Connecticut"
"478","angiebeebad","Texas",31.9685988,-99.9018131,"Texas"
"479","LindaAnnRamirez","Montana City, Montana",46.5377111,-111.9327688,"Montana"
"481","mattstaggs","DC Metropolitan Area",39.1289725,-77.3783789,"Maryland"
"482","PuyallupWAPatch","Puyallup, WA",47.1853785,-122.2928974,"Washington"
"483","BLakeSumnrPatch","Bonney Lake, WA",47.1770457,-122.1865055,"Washington"
"484","aijaseera","Philly",39.9525839,-75.1652215,"Pennsylvania"
"485","haleyybeth_","Denton, TX",33.2148412,-97.1330683,"Texas"
"486","paige_m15","Hays, KS",38.8791783,-99.3267702,"Kansas"
"487","Sophresh93","Bay Area ",37.8271784,-122.2913078,"California"
"488","OnlineAlison","Los Angeles, CA",34.0522342,-118.2436849,"California"
"489","zhourules","Austin, TX",30.267153,-97.7430608,"Texas"
"491","bly_jss_dbbs_3","Starkville/Mississippi State",33.4551742,-88.7943766,"Mississippi"
"492","DaleCourtney2","Florida, USA",27.6648274,-81.5157535,"Florida"
"493","megdscott","Mississippi, USA",32.3546679,-89.3985283,"Mississippi"
"494","MadaleineGray","Nashville, TN",36.1626638,-86.7816016,"Tennessee"
"496","tmoyer09","Florida...I know <U+0001F621>",27.6648274,-81.5157535,"Florida"
"497","kcranews","Sacramento, CA",38.5815719,-121.4943996,"California"
"499","EastgatePTA","Bellevue, WA",47.6101497,-122.2015159,"Washington"
"500","jayla_brynn","Kentucky, USA",37.8393332,-84.2700179,"Kentucky"
"501","Gracie_Presley2","Houston, TX",29.7604267,-95.3698028,"Texas"
"502","scooterandwhite","Seattle",47.6062095,-122.3320708,"Washington"
"509","JoshAbara","Dallas, TX",32.7766642,-96.7969879,"Texas"
"511","emilyybirddd","Los Angeles, CA",34.0522342,-118.2436849,"California"
"512","ashliiiiebby","Imperial Beach, CA",32.5839444,-117.1130849,"California"
"513","CaptDaSwamiDon","Beverly Hills, CA",34.0736204,-118.4003563,"California"
"520","16WAPTNews","Jackson, MS",32.2987573,-90.1848103,"Mississippi"
"524","KITVMaleko","Honolulu, HI",21.3069444,-157.8583333,"Hawaii"
"525","jesticide","Salt Lake City, UT",40.7607793,-111.8910474,"Utah"
"526","Foreverlanell","HTX",29.7552928,-95.3553688,"Texas"
"530","WindhamPatch","Windham, NH",42.8006441,-71.304229,"New Hampshire"
"531","GHarborPatch","Gig Harbor, WA",47.329264,-122.5801293,"Washington"
"532","EnumclawPatch","Enumclaw, WA",47.2042681,-121.9915003,"Washington"
"533","SalemNHPatch","Salem, NH",42.7885553,-71.2008912,"New Hampshire"
"534","MerrNHPatch","Merrimack, NH",42.8678693,-71.4948322,"New Hampshire"
"535","TheTriviaJockey","Chicago, IL",41.8781136,-87.6297982,"Illinois"
"537","fpetrie","Voorhees NJ",39.8519447,-74.961517,"New Jersey"
"539","Visionary_94","Virginia, USA",37.4315734,-78.6568942,"Virginia"
"541","elrodforschools","Nashville, TN",36.1626638,-86.7816016,"Tennessee"
"542","caitlyn_wtf","Georgia, USA",32.1656221,-82.9000751,"Georgia"
"543","Armykeith","Texas, USA",31.9685988,-99.9018131,"Texas"
"544","OnlyCarleigh","Nashville, TN/ Alabama",36.1526195,-86.8504948,"Tennessee"
"545","or5ig7in","Williamsport, PA",41.2411897,-77.0010786,"Pennsylvania"
"546","MagaWheels","Los Angeles, CA",34.0522342,-118.2436849,"California"
"547","ThatMummyLife","Garden",37.2126873,-95.71079,"Kansas"
"549","vacatemybody","Atlanta, GA",33.7489954,-84.3879824,"Georgia"
"552","JRochelleRal","NC | VA | TN ",35.5174913,-86.5804473,"Tennessee"
"555","rosebud_jurado","Los Angeles, CA",34.0522342,-118.2436849,"California"
"557","HannahWVR","Seattle, WA",47.6062095,-122.3320708,"Washington"
"558","KITV4","Honolulu, Hawaii",21.3069444,-157.8583333,"Hawaii"
"559","WDTN","Dayton Ohio",39.7589478,-84.1916069,"Ohio"
"560","happeninghoops","MD - IN ",37.0412191,-95.6393167,"Kansas"
"561","shaotamon","Aiea, HI",21.386338,-157.9255357,"Hawaii"
"564","SheviStories","New Jersey",40.0583238,-74.4056612,"New Jersey"
"565","emillyrobb","New Jersey, USA",40.0583238,-74.4056612,"New Jersey"
"566","mrtompinney","Maryville, MO",40.3461017,-94.8724706,"Missouri"
"567","MsBJPeart","Charleston South Carolina USA",32.7764749,-79.9310512,"South Carolina"
"568","Ldebretagne","Austin, TX",30.267153,-97.7430608,"Texas"
"569","bob16066","Cranberry Township PA",40.6849626,-80.1071379,"Pennsylvania"
"570","stephhfreeman_","okc",35.4675602,-97.5164276,"Oklahoma"
"574","KODEnews","Joplin, MO",37.0842271,-94.513281,"Missouri"
"576","KSNLocalNews","Joplin, MO",37.0842271,-94.513281,"Missouri"
"577","Beingchris","Pennsylvania, USA",41.2033216,-77.1945247,"Pennsylvania"
"580","DrikaOnealDavis","Texas, USA",31.9685988,-99.9018131,"Texas"
"581","ResearchAmerica","Arlington, VA",38.8816208,-77.0909809,"Virginia"
"583","marjmeds","Boca Raton, FL",26.3683064,-80.1289321,"Florida"
"584","HealthInAging","New York, NY",40.7127753,-74.0059728,"New York"
"585","HeavenlyDiva77","En Texas",31.759507,-106.480389,"Texas"
"586","Adhub2","Fort Collins, CO",40.5852602,-105.084423,"Colorado"
"587","mfjohnnysuh","multi",36.7499718,-95.9348204,"Oklahoma"
"588","Hokiefanshell","North Carolina, USA",35.7595731,-79.0192997,"North Carolina"
"589","midnighttsab","DE/DC",39.6735836,-75.7431575,"Delaware"
"590","MarissaWolff_","kroger",37.2229938,-95.7430179,"Kansas"
"593","DyaneHarwood","Santa Cruz Mountains, California",37.1108921,-121.8448906,"California"
"595","thepinkminkog","Leander, TX",30.5788055,-97.8530686,"Texas"
"598","golf4miami","Dayton, Ohio",39.7589478,-84.1916069,"Ohio"
"599","hashfunk","Sandiego, Carmen",32.6498641,-117.0974876,"California"
"602","dudasoares_s","021",41.8957974,-87.6751062,"Illinois"
"603","B2Life33","Texas, USA",31.9685988,-99.9018131,"Texas"
"605","WLWT","Cincinnati, Ohio, USA",39.1031182,-84.5120196,"Ohio"
"606","FFEmsdPTA","330 Massapequa Avenue Massapeq",40.6688953,-73.4739079,"New York"
"607","BradfishJason","Post Falls, Idaho",47.7179578,-116.9515856,"Idaho"
"608","Julie_xvo","NYC <U+2728>BUFF <U+2693><U+FE0F>",40.7127753,-74.0059728,"New York"
"615","Adorablealliee","HTX | NAC",29.4626646,-95.2337556,"Texas"
"616","YoungBoinardino","San Francisco",37.7749295,-122.4194155,"California"
"618","ToxicSmokeee","Massachusetts, USA",42.4072107,-71.3824374,"Massachusetts"
"621","joanmccarter","Idaho",44.0682019,-114.7420408,"Idaho"
"622","DrDrrrDVM","Chicago, IL",41.8781136,-87.6297982,"Illinois"
"623","wasabeymami","Los Angeles, CA",34.0522342,-118.2436849,"California"
"624","LooseIsLoose","Hillsboro, OR",45.5200114,-122.9365835,"Oregon"
"626","DebbieBrandt1","Sunshine State",27.6648274,-81.5157535,"Florida"
"629","davlinnews","Boise, ID",43.6150186,-116.2023137,"Idaho"
"631","ffc_anna","022",33.432517,-117.6271194,"California"
"632","ConcordNHPatch","Concord, NH",43.2081366,-71.5375718,"New Hampshire"
"633","PortsmthNHPatch","Portsmouth, NH",43.0717552,-70.7625532,"New Hampshire"
"634","BedfordNHPatch","Bedford, NH",42.9463291,-71.5132008,"New Hampshire"
"635","MilfordNHPatch","Milford, NH",42.8353619,-71.6489836,"New Hampshire"
"636","ExeterPatch","Exeter, NH",42.9814292,-70.9477546,"New Hampshire"
"637","HamptonNHPatch","Hampton, NH",42.9375932,-70.8389219,"New Hampshire"
"638","NashuaPatch","Nashua, NH",42.7653662,-71.467566,"New Hampshire"
"639","AmherstPatch","Amherst, NH",42.8614748,-71.6253487,"New Hampshire"
"640","iconicky","philly<U+27BF>htine<U+27BF>atx<U+27BF>qro",39.9525839,-75.1652215,"Pennsylvania"
"643","barmb17123","California, USA",36.778261,-119.4179324,"California"
"644","ab_williams11","Julian, North Carolina",35.9051363,-79.660304,"North Carolina"
"646","corbett","Pasadena, CA",34.1477849,-118.1445155,"California"
"647","HelloMD_com","San Francisco, CA",37.7749295,-122.4194155,"California"
"649","KristatheYoung1","Corpus Christi, TX",27.8005828,-97.396381,"Texas"
"651","mulko_martha","Dallas, TX",32.7766642,-96.7969879,"Texas"
"652","spellgage","St Petersburg, FL",27.7676008,-82.6402915,"Florida"
"653","ChrisFrance14","Seal Beach, California, USA",33.7414085,-118.1047682,"California"
"654","county17news","Gillette, WY",44.2910915,-105.5022205,"Wyoming"
"657","arcangelcricket","Here in clairvoyant state ",34.862631,-111.808805,"Arizona"
"658","mdmirp","Signal Mountain, TN",35.1225727,-85.3438488,"Tennessee"
"666","Burlsgurl2010","Lake Living, OK",33.9425765,-97.133232,"Oklahoma"
"667","imelemi","Not here",35.9131668,-79.0566596,"North Carolina"
"670","victoriuhhrose","nc babey",35.8047158,-78.8184192,"North Carolina"
"672","comicalwagner","NYC",40.7127753,-74.0059728,"New York"
"675","payton__carver","Orlando, FL",28.5383355,-81.3792365,"Florida"
"676","puahslove","Small town, small state",33.4582071,-88.7936159,"Mississippi"
"677","aymarianac7","Narnia",40.7144279,-73.9594438,"New York"
"678","MdMoolani","Kentucky, USA",37.8393332,-84.2700179,"Kentucky"
"680","mrsgoldsmith39","Keyport, NJ",40.4331631,-74.1995883,"New Jersey"
"681","alpaal_","unknown ",35.2205059,-80.8575394,"North Carolina"
"683","vanessavgalindo","DFW,TX ",32.7078751,-96.9209135,"Texas"
"685","alannnnarene","Jourdanton, TX",28.9180294,-98.5464068,"Texas"
"691","kreayshawna","bay area",37.8271784,-122.2913078,"California"
"695","dochappycamper","West Coast USA",62.4113634,-149.0729714,"Alaska"
"696","bizzomephisto","MASS",42.4072107,-71.3824374,"Massachusetts"
"697","RaiRaisymone","Los Angeles, CA &bakersfield",34.0522342,-118.2436849,"California"
"699","BalancedBodyChi","Naugatuck, CT",41.485921,-73.0506972,"Connecticut"
"700","vo_ldemort","Knoxville, TN",35.9606384,-83.9207392,"Tennessee"
"701","SanduskyMall","Sandusky, OH",41.4561754,-82.7116821,"Ohio"
"705","l0vecrimes","oh",40.4172871,-82.907123,"Ohio"
"706","leidymescudi","Suwanee, GA",34.0514898,-84.0712997,"Georgia"
"707","briathefromtheb","Pittsburgh",40.4406248,-79.9958864,"Pennsylvania"
"708","rosesfordex","michigan",44.3148443,-85.6023643,"Michigan"
"709","SethRudetsky","New York City",40.7127753,-74.0059728,"New York"
"710","Dlew61599681","Iowa, USA",41.8780025,-93.097702,"Iowa"
"711","angel_ponders","Honolulu, HI",21.3069444,-157.8583333,"Hawaii"
"712","Luke_A_Thomas_","Murfreesboro, TN",35.8456213,-86.39027,"Tennessee"
"713","cleanerservices","Lisle, IL",41.801141,-88.0747875,"Illinois"
"715","Marlenedougher","Lafayette, IN",40.4167022,-86.8752869,"Indiana"
"716","iAmKtownKris","Jacksonville, FL (DUVAL)",30.3321838,-81.655651,"Florida"
"717","theBottleFarm","Pepperell MA",42.6659232,-71.5884363,"Massachusetts"
"718","historBilia","Saint Cloud, FL",28.2489016,-81.2811801,"Florida"
"719","zheida","Lafayette, LA",30.2240897,-92.0198427,"Louisiana"
"720","mr_radclif","Michigan, USA",44.3148443,-85.6023643,"Michigan"
"721","cloudsft96shood","SF/ RIV/ OC",37.7749295,-122.4194155,"California"
"722","bigorangeboi","Jackson via Bemis",38.0141527,-78.5039172,"Virginia"
"723","nschoenberg","Chicago",41.8781136,-87.6297982,"Illinois"
"725","UpchurchWYMT","Hazard, KY",37.24954,-83.1932284,"Kentucky"
"726","glynnisanne86","Canton, MA",42.1584324,-71.1447732,"Massachusetts"
"729","flu_marco","RJ",39.0228065,-94.6580927,"Kansas"
"730","shebookstravel","College Park, GA",33.6534427,-84.4493725,"Georgia"
"733","LibertyBill4891","Knoxville, TN",35.9606384,-83.9207392,"Tennessee"
"737","kristinlongcox","Albany, OR",44.6365107,-123.1059282,"Oregon"
"738","thecreator_well","RJ",39.0228065,-94.6580927,"Kansas"
"739","4h21_","BNH",40.7529454,-73.996337,"New York"
"741","bashgita","Gold's Gym ",35.4794755,-97.7532002,"Oklahoma"
"742","HealthyBoricua","North Augusta, SC",33.5018026,-81.9651152,"South Carolina"
"743","emonayee","Kentucky, USA",37.8393332,-84.2700179,"Kentucky"
"745","BTree4UT","Springfield, Tennessee",36.5092118,-86.8849984,"Tennessee"
"747","t3hDave","Los Angeles, CA",34.0522342,-118.2436849,"California"
"749","OohLaLovely","LalaLand",26.3496347,-80.2289571,"Florida"
"750","rachelsmalls","Ohio, USA",40.4172871,-82.907123,"Ohio"
"752","mickey59047897","Galliano, LA",29.4421645,-90.2992464,"Louisiana"
"753","MollyPaschall","San Marcos, TX",29.8832749,-97.9413941,"Texas"
"755","wvucheergirl","Orlando, FL <U+2600>",28.5383355,-81.3792365,"Florida"
"756","MrBurrana","Oregon, USA",43.8041334,-120.5542012,"Oregon"
"758","mariannahubrism","Orlando, FL",28.5383355,-81.3792365,"Florida"
"759","_StephMonique_","Texas, USA",31.9685988,-99.9018131,"Texas"
"761","kirstyrn","The Left Coast",41.9340158,-87.6610104,"Illinois"
"764","IAmRileyReed","Bethlehem, PA",40.6259316,-75.3704579,"Pennsylvania"
"765","mkels92","Tennessee, USA",35.5174913,-86.5804473,"Tennessee"
"768","TooElegantToLie","Buffalo, NY",42.8864468,-78.8783689,"New York"
"769","sun_shine_beast","West Portsmouth, OH",38.7584091,-83.0290644,"Ohio"
"772","Moonsyrin","A small town outside Syracuse",43.0481221,-76.1474244,"New York"
"773","HaleyDragoo96","Elizabethtown, KY",37.7030646,-85.8649408,"Kentucky"
"774","TweetLikeShan","205",37.6846902,-96.78655,"Kansas"
"775","ArrudaBoy_","Antioch",38.0049214,-121.805789,"California"
"777","Swallowski","Nashville, TN",36.1626638,-86.7816016,"Tennessee"
"778","ErikHandy","Parts Unknown",36.3114126,-95.6136237,"Oklahoma"
"781","TennesseeDonkey","University of Tennessee AG ",35.9489845,-83.9418839,"Tennessee"
"782","immeaganschmitt","Miami, FL",25.7616798,-80.1917902,"Florida"
"784","olifo","Pittsburgh, PA",40.4406248,-79.9958864,"Pennsylvania"
"788","1812Blockhouse","Mansfield, Ohio",40.75839,-82.5154471,"Ohio"
"789","newstipsCBS2","Aurora,IL",41.7605849,-88.3200715,"Illinois"
"791","Shelbycorless","Michigan, USA",44.3148443,-85.6023643,"Michigan"
"794","wsbtv","Atlanta, GA",33.7489954,-84.3879824,"Georgia"
"795","Airey66928908","North Carolina, USA",35.7595731,-79.0192997,"North Carolina"
"797","enimsahJ__x","CLE",29.7466345,-95.3727001,"Texas"
"798","krystalllllll_","Annapolis, MD",38.9784453,-76.4921829,"Maryland"
"799","CarrieKeepPushn","Kentucky, USA",37.8393332,-84.2700179,"Kentucky"
"800","JustSeum","Hogwarts",28.4722475,-81.4736377,"Florida"
"801","padow42","RVA",37.5407246,-77.4360481,"Virginia"
"803","UMDHealthCenter","College Park, Maryland",38.9896967,-76.93776,"Maryland"
"804","AnnieMalaythong","Atlanta, Ga (Johns Creek) ",34.0289259,-84.198579,"Georgia"
"805","SippyCupsandBoo","Lancaster Ca",34.6867846,-118.1541632,"California"
"806","_itsleslayy","Dallas, TX",32.7766642,-96.7969879,"Texas"
"807","brokenjules","California",36.778261,-119.4179324,"California"
"808","Action10News","Corpus Christi, TX",27.8005828,-97.396381,"Texas"
"810","ScottB_503","Portland, OR",45.5122308,-122.6587185,"Oregon"
"811","AdamJamesM60","Nashville, TN",36.1626638,-86.7816016,"Tennessee"
"812","jmercedes_8","Hoboken, NJ",40.7439905,-74.0323626,"New Jersey"
"816","AlmostShawn","Santa Barbara, CA",34.4208305,-119.6981901,"California"
"819","AmSoCool","Orlando <U+0001F1ED><U+0001F1F9>",28.5383355,-81.3792365,"Florida"
"820","hello_haleyanne","indiana",40.2671941,-86.1349019,"Indiana"
"821","georgettkash1","Atl",33.6407282,-84.4277001,"Georgia"
"822","_heyyTAY","Richmond, VA",37.5407246,-77.4360481,"Virginia"
"823","TheyH8Mic","Ohio, USA",40.4172871,-82.907123,"Ohio"
"825","TeeFlizzy","301. ",37.2256801,-95.706922,"Kansas"
"827","lenubienne","Support",37.2249541,-95.7100133,"Kansas"
"829","dilbeckschauna","Cassville, MO",36.6770111,-93.8688109,"Missouri"
"830","80smptree","lost at 80s",44.1340569,-70.2823728,"Maine"
"831","me_not_animal","Durham",35.9940329,-78.898619,"North Carolina"
"834","ddepledge","Astoria, Oregon.",46.1878841,-123.8312534,"Oregon"
"836","DailyAstorian","Astoria, Oregon",46.1878841,-123.8312534,"Oregon"
"837","Amandakrohn_","Shamong NJ ",39.7775775,-74.7351513,"New Jersey"
"839","EdwardRaus","Fresno, California",36.7377981,-119.7871247,"California"
"841","deputy_wifey","Anywhere, NC ",35.8702581,-78.5840939,"North Carolina"
"842","DropOfWat3r","Dållås, TX / Bøstøn, MÅ ",32.7766642,-96.7969879,"Texas"
"845","BlackKangoPhoto","Oakland, CA",37.8043637,-122.2711137,"California"
"846","dezdiddy","louisville, kentucky",38.2526647,-85.7584557,"Kentucky"
"849","The_MoonBean","Nashville, TN",36.1626638,-86.7816016,"Tennessee"
"851","4029Craig","Rogers, AR",36.3320196,-94.1185366,"Arkansas"
"853","medindicators","New Jersey, USA",40.0583238,-74.4056612,"New Jersey"
"855","nolan_baily","Temecula, CA",33.4936391,-117.1483648,"California"
"857","karencang","Keene, NH",42.933692,-72.2781409,"New Hampshire"
"859","lisa_mongillo","New York, NY",40.7127753,-74.0059728,"New York"
"860","wreckoslovakia","Alexandria, VA",38.8048355,-77.0469214,"Virginia"
"862","GrrArrgh","San Diego",32.715738,-117.1610838,"California"
"863","LETHAL__weapon","PA, United States",41.2033216,-77.1945247,"Pennsylvania"
"865","dix_iechick","BizarroWorld (used to be USA)",38.5439695,-121.7414338,"California"
"866","Playboy901","Darkside of Memphis",35.1055752,-89.9852153,"Tennessee"
"869","4029news","Rogers, Arkansas",36.3320196,-94.1185366,"Arkansas"
"870","goldebarrigaffc","spa",37.2682794,-95.5496728,"Kansas"
"872","alanap98","Texas",31.9685988,-99.9018131,"Texas"
"873","kkarlaruiz","Las vegas,Napa,Lagosdemoreno",36.1294549,-115.2084858,"Nevada"
"876","staygoldengirlx","mermaidlagoon",32.5229788,-94.8041418,"Texas"
"877","AlexLoucel","ATX",30.3535562,-97.6718832,"Texas"
"878","bwayducks","New York, USA",40.7127753,-74.0059728,"New York"
"879","jessiexrae","sc: jessie.grace1",33.836081,-81.1637245,"South Carolina"
"880","carly_michael10","Country roads",30.2225539,-81.750889,"Florida"
"881","GideonGil","Boston",42.3600825,-71.0588801,"Massachusetts"
"882","JulesKelley9","Massachusetts, USA",42.4072107,-71.3824374,"Massachusetts"
"883","threecat101","NZ",-40.900557,174.885971,"Massachusetts"
"885","richmintz","New York",40.7127753,-74.0059728,"New York"
"888","_nayrain","RockHill SC",34.9248667,-81.0250784,"South Carolina"
"889","_rocha12_","NF",37.8665127,-94.3426852,"Missouri"
"890","saam_brownn","Citi Field ",40.7570877,-73.8458213,"New York"
"892","MissyPfaltzgraf","Pickerington, Ohio",39.8842304,-82.7535049,"Ohio"
"893","Broadwaycritic1","Manhattan, NY",40.7830603,-73.9712488,"New York"
"894","c_garn30","Tulsa, OK",36.1539816,-95.992775,"Oklahoma"
"896","HaefeleKatie","Darien, NY",42.9026199,-78.350676,"New York"
"897","erictleung","Portland, OR",45.5122308,-122.6587185,"Oregon"
"898","happiestbaby","Santa Monica, CA",34.0194543,-118.4911912,"California"
"901","_steve3_","Highlands Ranch, CO",39.5480789,-104.9739333,"Colorado"
"902","TimMoses37","Olympia, WA",47.0378741,-122.9006951,"Washington"
"903","Bobertt_","McAllen, Tx",26.2034071,-98.2300124,"Texas"
"904","pillsnpotions94","New Iberia, LA",30.0035365,-91.8187285,"Louisiana"
"905","TomKbrink","Arizona, USA",34.0489281,-111.0937311,"Arizona"
"906","HabariCloud","Worldwide",36.249758,-95.266826,"Oklahoma"
"908","DiStitz","Chicagoland ",41.7435073,-88.0118473,"Illinois"
"909","BornNicee","Brooklyn N.Y.C",40.6781784,-73.9441579,"New York"
"910","missy_taegan","Wyoming, USA",43.0759678,-107.2902839,"Wyoming"
"912","MckenzyMenouuu","Houma, LA",29.5957696,-90.7195348,"Louisiana"
"913","CaryGrcnt","Beverly Hills, CA",34.0736204,-118.4003563,"California"
"914","rvbertt","Norfolk, VA",36.8507689,-76.2858726,"Virginia"
"915","Debbie_Cockrell","Olympia/Tacoma",46.9874801,-122.9239685,"Washington"
"916","methibosheth","Mid-TN",35.802774,-86.430606,"Tennessee"
"917","ByCharlieRicker","Greece, NY",43.2097837,-77.6930602,"New York"
"918","autumn_nicole17","Lynchburg, VA",37.4137536,-79.1422464,"Virginia"
"919","max_donosa","Oxnard, CA",34.1975048,-119.1770516,"California"
"920","txoilman40","Frisco, TX",33.1506744,-96.8236116,"Texas"
"921","BAPerryman","NJ",40.0583238,-74.4056612,"New Jersey"
"922","JillianVetter","Selden, NY",40.8664873,-73.0356625,"New York"
"925","nicolederosa191","Fredericksburg, VA",38.3031837,-77.4605399,"Virginia"
"926","MakeAnOfferThen","Raulex",32.792861,-96.8064962,"Texas"
"927","KungFuDracula","Charlotte, NC",35.2270869,-80.8431267,"North Carolina"
"928","_savanerz","Houston, TX",29.7604267,-95.3698028,"Texas"
"930","NadYourBusiness","Maryland ",39.0457549,-76.6412712,"Maryland"
"931","untethered_art","Raleigh, NC",35.7795897,-78.6381787,"North Carolina"
"932","jesssicawooods","Ardmore, OK",34.1742611,-97.1436254,"Oklahoma"
"934","fallenscamander","Unknown | CST",35.2205059,-80.8575394,"North Carolina"
"935","ldurstine","Acme, PA",40.1265877,-79.4287878,"Pennsylvania"
"936","imactuallysky","nj",40.0583238,-74.4056612,"New Jersey"
"937","chris_hattam","Camden",39.9259463,-75.1196199,"New Jersey"
"938","AshleyPorteeyo","Corpus Christi, TX",27.8005828,-97.396381,"Texas"
"942","audiluaa","Montrose, CO",38.4783198,-107.8761738,"Colorado"
"943","kxly4news","Spokane, Washington",47.6587802,-117.4260465,"Washington"
"944","tulanedm","New Orleans, LA",29.9510658,-90.0715323,"Louisiana"
"945","KRIS6News","Corpus Christi, Texas",27.8005828,-97.396381,"Texas"
"946","DoubleTapAgain","Hell",42.43472,-83.985,"Michigan"
"951","jalonwhite14","Irving, TX",32.8140177,-96.9488945,"Texas"
"952","nullnotvoid","Riiiiight about here, Michigan",44.3148443,-85.6023643,"Michigan"
"953","SDNewsfeed","San Diego",32.715738,-117.1610838,"California"
"954","sdut","San Diego, CA",32.715738,-117.1610838,"California"
"955","smdalbrig","Arlington, VA",38.8816208,-77.0909809,"Virginia"
"956","ScvBirth","Santa Clarita, CA",34.3916641,-118.542586,"California"
"957","_uncommonme","NC",35.7595731,-79.0192997,"North Carolina"
"960","MidnoirCowboy","Chicago",41.8781136,-87.6297982,"Illinois"
"961","VFranQuiLin","Ohio, USA",40.4172871,-82.907123,"Ohio"
"963","ProfitsMrketing","Chula Vista, CA",32.6400541,-117.0841955,"California"
"966","Ashy_knees","202",36.7902695,-95.9348384,"Oklahoma"
"967","angelicalove16_","Work",37.0359694,-95.6209911,"Kansas"
"968","bashleeroy92","302",37.0565248,-95.7109391,"Kansas"
"969","__mbaeli","Johannesburg, South Africa",-26.2041028,28.0473051,"Kansas"
"970","Michael_T_Moore","McAlester, OK",34.9334298,-95.7697131,"Oklahoma"
"976","guinea_wrangler","Los Angeles",34.0522342,-118.2436849,"California"
"977","JakeMayhoff","California, USA",36.778261,-119.4179324,"California"
"978","BernieTafoya","Chicago",41.8781136,-87.6297982,"Illinois"
"979","vic_lockwood_","rva",37.5407246,-77.4360481,"Virginia"
"980","ind3fatigable","in a strange place",38.93654,-94.384627,"Missouri"
"982","rl93930","California, USA",36.778261,-119.4179324,"California"
"985","ArthurCaplan","NYU Langone Medical Ctr",40.742436,-73.9737746,"New York"
"986","flapjackxo","Florida, USA",27.6648274,-81.5157535,"Florida"
"987","BryceJones6","Corydon, IN",38.2120121,-86.1219155,"Indiana"
"988","stacylawrussell","Denton, Texas",33.2148412,-97.1330683,"Texas"
"989","CarenetHealth","San Antonio, Texas",29.4241219,-98.4936282,"Texas"
"990","hellbillyJ79","PRINCETON,IN",38.3553236,-87.5675222,"Indiana"
"991","SirToonday","Great State of Tejas",31.5497303,-95.2368076,"Texas"
"993","case_roo","Yuba City, CA",39.1404477,-121.6169108,"California"
"994","ABC5FOX9","Yuma, AZ",32.6926512,-114.6276916,"Arizona"
"995","Natalie4NY","New York, NY",40.7127753,-74.0059728,"New York"
"996","ashleighm___","Ohio, USA",40.4172871,-82.907123,"Ohio"
"999","filmchick3","Los Angeles, CA",34.0522342,-118.2436849,"California"
"1000","TrevorSheehan","Paddy’s Irish Pub",35.046668,-78.920168,"North Carolina"
"1001","13OnYourSide","Yuma, AZ/El Centro, CA",32.6926512,-114.6276916,"Arizona"
"1002","KCTV5","Kansas City, Mo.",39.0997265,-94.5785667,"Missouri"
"1003","KYMA11","Yuma, Arizona ",32.6926512,-114.6276916,"Arizona"
"1004","Jocelyn_dlrt","Dallas, TX",32.7766642,-96.7969879,"Texas"
"1005","vabuda1","Massachusetts",42.4072107,-71.3824374,"Massachusetts"
"1006","zdlwood11","Yorktown",37.2387556,-76.5096731,"Virginia"
"1007","UnitedStatesOfQ","Norwalk, CT",41.117744,-73.4081575,"Connecticut"
"1008","KennyShops","Dallas, Texas",32.7766642,-96.7969879,"Texas"
"1009","Rwelzenb","Ann Arbor, MI",42.2808256,-83.7430378,"Michigan"
"1010","FallennAangel","Detroit, MI",42.331427,-83.0457538,"Michigan"
"1011","zyiteblog","www.zyite.com",34.1810092,-118.3308603,"California"
"1012","kmonroedotcom","Lash Bar 901 ",35.0658561,-90.0592123,"Tennessee"
"1015","bmartinns_","vix",39.9480793,-75.2238373,"Pennsylvania"
"1016","mhurley886","CT Girl",41.75174,-72.682698,"Connecticut"
"1017","trey_belden","Lafayette, Louisiana ",30.2240897,-92.0198427,"Louisiana"
"1019","ImLiterallyLily","fort collins, co",40.5852602,-105.084423,"Colorado"
"1020","xxsamm5","Gainesville, GA",34.2978794,-83.8240663,"Georgia"
"1021","USAChildCare","Arlington, VA",38.8816208,-77.0909809,"Virginia"
"1022","SGCKasey","Coeur d'Alene, ID",47.6734632,-116.7812225,"Idaho"
"1024","vAutomxtic__","BSU",43.6026952,-116.2014604,"Idaho"
"1025","SmallSaltShaker","California, USA",36.778261,-119.4179324,"California"
"1026","Nauro","Midwest",37.039147,-95.6143316,"Kansas"
"1029","demortes","Omaha, NE USA",41.2565369,-95.9345034,"Nebraska"
"1031","NirvanaMyDude","Somewhere, Tx",29.9367578,-96.2562482,"Texas"
"1033","wenderella60","Connecticut, USA",41.6032207,-73.087749,"Connecticut"
"1034","chirprn","Wisconsin, USA",43.7844397,-88.7878678,"Wisconsin"
"1035","peteherr","Buffalo, NY",42.8864468,-78.8783689,"New York"
"1036","ImMakingTime","Lehigh Acres, FL",26.6253497,-81.6248026,"Florida"
"1037","batteriesandmor","Molalla Oregon ",45.1462914,-122.5756477,"Oregon"
"1040","KosaaMT","Qwayy",32.8718062,-117.2128963,"California"
"1041","siirentweets","Las Vegas, NV",36.1699412,-115.1398296,"Nevada"
"1043","driizzyy98","Morgantown, WV",39.629526,-79.9558968,"West Virginia"
"1044","dailyherald","Chicago Suburbs",41.7435073,-88.0118473,"Illinois"
"1048","dominator_don","Kentucky, USA",37.8393332,-84.2700179,"Kentucky"
"1049","sqwarlock","Irvine, CA",33.6845673,-117.8265049,"California"
"1050","Jen2pointO","Oklahoma City, OK",35.4675602,-97.5164276,"Oklahoma"
"1051","wdsu","New Orleans, LA",29.9510658,-90.0715323,"Louisiana"
"1052","LilyGirl0721","Maryland, USA",39.0457549,-76.6412712,"Maryland"
"1055","dinahcreates","Houston, TX",29.7604267,-95.3698028,"Texas"
"1056","okblood","11 centers in OK, TX & AR",35.0077519,-97.092877,"Oklahoma"
"1057","_herobae","New Orleans, LA<U+269C>",29.9510658,-90.0715323,"Louisiana"
"1059","aetiology","Kent, Ohio",41.1536674,-81.3578859,"Ohio"
"1061","_prettyahja","Long island , NY",40.789142,-73.134961,"New York"
"1062","frozenyogurt3","A local fro yo shop",39.027921,-96.8456277,"Kansas"
"1063","furthesttings","Hidden Hills, CA",34.1602832,-118.6523096,"California"
"1067","allexisriley","Evansville, IN",37.9715592,-87.5710898,"Indiana"
"1068","215Today","Pennsylvania, USA",41.2033216,-77.1945247,"Pennsylvania"
"1073","brownbeansprout","Colleyville, TX",32.8809603,-97.155012,"Texas"
"1075","AndBulbous","Los Angeles, CA",34.0522342,-118.2436849,"California"
"1076","JadaNoPinkett","PG County ",38.7849211,-76.8720961,"Maryland"
"1077","Chaplain4Deaf","Oklahoma",35.0077519,-97.092877,"Oklahoma"
"1078","djdropz_","Austin, TX",30.267153,-97.7430608,"Texas"
"1079","aahammond","Green Mountians ",44.791667,-72.582778,"Vermont"
"1080","layyaaa__","brla",30.4514677,-91.1871466,"Louisiana"
"1081","Chrispy_Cakes","Iowa",41.8780025,-93.097702,"Iowa"
"1082","highkeyaar0n","Houston, TX",29.7604267,-95.3698028,"Texas"
"1083","Anapatf","Samborondon",-1.9606263,-79.727151,"Texas"
"1084","Singer_Haileyxo","L.A",34.0522342,-118.2436849,"California"
"1085","presidentaleb","City of Angels L.A.",34.0522342,-118.2436849,"California"
"1087","julietashley_","Redlands, CA ",34.0555693,-117.1825381,"California"
"1088","kbinpgh","Pennsylvania, USA",41.2033216,-77.1945247,"Pennsylvania"
"1089","Nancie820","Arizona, USA",34.0489281,-111.0937311,"Arizona"
"1091","sinthiadoll","NY",40.7127753,-74.0059728,"New York"
"1092","ZW5424","Pennsylvania, USA",41.2033216,-77.1945247,"Pennsylvania"
"1093","ivyblos","a soft place",46.968466,-122.240765,"Washington"
"1094","icednipple","Indiana",40.2671941,-86.1349019,"Indiana"
"1096","CatOnA_TinRoof","God’s Country",47.307158,-93.557276,"Minnesota"
"1098","MemeEconomy9","California, USA",36.778261,-119.4179324,"California"
"1099","kevinmonteiro88","Houston, TX",29.7604267,-95.3698028,"Texas"
"1102","sarah_martin_19","Knoxville, IA",41.320343,-93.09967,"Iowa"
"1104","FOX61News","Hartford, CT",41.7658043,-72.6733723,"Connecticut"
"1105","luxsins","c k c",37.226096,-93.347433,"Missouri"
"1107","OceanLuver","Southern Illinois",37.7100209,-89.2225941,"Illinois"
"1108","frhnh_z","republic poly",1.4428049,103.7854019,"Illinois"
"1110","InternetJoey","FL",27.6648274,-81.5157535,"Florida"
"1111","Anonymychele","Narnia",40.7144279,-73.9594438,"New York"
"1113","kristenLS_","Hilo, HI",19.7241106,-155.0868193,"Hawaii"
"1114","allthepaper","Pittsburgh, PA",40.4406248,-79.9958864,"Pennsylvania"
"1116","UnmaskedGremlin","CT",41.6032207,-73.087749,"Connecticut"
"1120","Perciside","Wichita, KS",37.6871761,-97.330053,"Kansas"
"1123","MarvinRashad_","Chicago, IL",41.8781136,-87.6297982,"Illinois"
"1124","PuebloAnkleFoot","1619 N Greenwood St Ste 300",38.2823358,-104.6137413,"Colorado"
"1126","WFMY","Greensboro, North Carolina",36.0726354,-79.7919754,"North Carolina"
"1128","kbrightwell02","California, USA",36.778261,-119.4179324,"California"
"1129","TorturedBucFan","North Carolina, USA",35.7595731,-79.0192997,"North Carolina"
"1130","_austinsydney","LA <U+269C><U+FE0F>",29.9687669,-90.0697051,"Louisiana"
"1131","MsDNeedsCoffee","Florida, USA",27.6648274,-81.5157535,"Florida"
"1132","WTAJnews","Altoona, PA",40.5186809,-78.3947359,"Pennsylvania"
"1133","jordancolona","Louisiana ",30.9842977,-91.9623327,"Louisiana"
"1136","prichardsonla","Los Angeles, CA",34.0522342,-118.2436849,"California"
"1137","Kacey325","NYC",40.7127753,-74.0059728,"New York"
"1138","dbbaileyFFC","Florence, AL",34.79981,-87.677251,"Alabama"
"1139","g_series_","Indianapolis, IN",39.768403,-86.158068,"Indiana"
"1140","daUPhereReviews","Ishpeming, MI",46.4885469,-87.6676358,"Michigan"
"1141","sarah_wigington","Ireland, texas and Uk ",31.5668256,-97.965307,"Texas"
"1142","foreignmofoz","toilet",36.2474639,-96.2793185,"Oklahoma"
"1143","kingkolbabe","Tennessee, USA",35.5174913,-86.5804473,"Tennessee"
"1145","steakgurl","Martinez, Ca from Hemet, Ca",33.7464669,-116.9621081,"California"
"1146","mylifeassheyla","Houston, TX",29.7604267,-95.3698028,"Texas"
"1147","Gewiretz","New York, USA",40.7127753,-74.0059728,"New York"
"1148","the4list","Boston",42.3600825,-71.0588801,"Massachusetts"
"1149","alexkaye_","Las Vegas, NV",36.1699412,-115.1398296,"Nevada"
"1150","KLBotterill","Lakeville, MN",44.6496868,-93.24272,"Minnesota"
"1152","MikeGrant_42","ODU",36.8853217,-76.3058786,"Virginia"
"1153","trippcoale","Annapolis, MD",38.9784453,-76.4921829,"Maryland"
"1154","AnotherSun13","Somerville, MA",42.3875968,-71.0994968,"Massachusetts"
"1155","gothcontrol","Saint Olaf",44.4616634,-93.1826784,"Minnesota"
"1157","_davidzx","San Antonio, TX",29.4241219,-98.4936282,"Texas"
"1158","SGUHandWashBot","Grenada",12.1165,-61.679,"Texas"
"1159","jordanpierson__","west virginia ",38.5976262,-80.4549026,"West Virginia"
"1162","MySampleLife","North carolina",35.7595731,-79.0192997,"North Carolina"
"1163","lolzjordan","chicago",41.8781136,-87.6297982,"Illinois"
"1164","word2deeba","Chicago, IL",41.8781136,-87.6297982,"Illinois"
"1165","WDB4393","Texas, USA",31.9685988,-99.9018131,"Texas"
"1167","sheblac0208","McAllen, TX",26.2034071,-98.2300124,"Texas"
"1168","MacieJennie","Parrotsville, Tn",36.0092653,-83.0923775,"Tennessee"
"1169","gisellesprat","Florida, USA",27.6648274,-81.5157535,"Florida"
"1170","FaithNotFay","Bay Area Livin<U+0001F334>SacProud <U+0001F331><U+0001F451>",37.8271784,-122.2913078,"California"
"1171","M_Bulge19","Buffalo, NY",42.8864468,-78.8783689,"New York"
"1174","lvargs_","the greenhouse",37.665072,-77.488651,"Virginia"
"1175","ksal1162","PA",41.2033216,-77.1945247,"Pennsylvania"
"1176","jlovesbangtan","my bed",44.9991459,-93.2718701,"Minnesota"
"1177","philsinthetrap","Honolulu",21.3069444,-157.8583333,"Hawaii"
"1179","vesaldi","Chicago IL",41.8781136,-87.6297982,"Illinois"
"1184","mrobinson30","Baytown, TX",29.7355047,-94.9774274,"Texas"
"1185","1010WINS","New York City",40.7127753,-74.0059728,"New York"
"1186","HugoM013","Live Oak, TX",29.5652286,-98.3364025,"Texas"
"1188","lagout666","Los Angeles, CA",34.0522342,-118.2436849,"California"
"1189","bayareahausfrau","People's Republic Of Californi",37.784648,-122.427699,"California"
"1191","kilixox","Las Vegas, NV",36.1699412,-115.1398296,"Nevada"
"1192","EddieL518","North Carolina, USA",35.7595731,-79.0192997,"North Carolina"
"1193","TheImpossebulls","Pittsburgh",40.4406248,-79.9958864,"Pennsylvania"
"1196","mynameisfaithe","locker 190",40.2750826,-111.68139,"Utah"
"1197","waterslap","Ventura, CA",34.2804923,-119.2945199,"California"
"1198","3onyourside","Memphis, TN",35.1495343,-90.0489801,"Tennessee"
"1199","8to5fitmom","North Carolina, USA",35.7595731,-79.0192997,"North Carolina"
"1202","UTDallasArts","Richardson, TX",32.9483335,-96.7298519,"Texas"
"1203","MyStateline","Rockford, Illinois",42.2711311,-89.0939952,"Illinois"
"1204","lunarsag","Upstate, NY",41.6090629,-74.5365544,"New York"
"1205","Chris_1791"," f<U+03B9><U+03BB>e<U+03C9> ade<U+03BB>f<U+03BF><U+03C2> Philadelphia PA",39.9525839,-75.1652215,"Pennsylvania"
"1207","WUSTLmed","St. Louis, MO",38.6270025,-90.1994042,"Missouri"
"1210","JLuriaLISW","Iowa City, IA",41.6611277,-91.5301683,"Iowa"
"1211","LuigiM94","Chicago/ Panamá",41.8439739,-87.6730818,"Illinois"
"1214","P_illa730","5th Dimension",40.146401,-88.276067,"Illinois"
"1217","PattySlay_1","Stillwater, OK",36.1156071,-97.0583681,"Oklahoma"
"1219","DrDamluji","Baltimore, MD",39.2903848,-76.6121893,"Maryland"
"1222","natedorough","Hartland, Michigan",42.6315066,-83.7507315,"Michigan"
"1223","artofperson","South Florida",27.6648274,-81.5157535,"Florida"
"1224","iLoveLeJaye","in Control . [336] [NC]",36.080827,-79.5090447,"North Carolina"
"1228","LaredoHub","Laredo, TX",27.5035613,-99.5075519,"Texas"
"1229","BrenWalsh84","New York, NY",40.7127753,-74.0059728,"New York"
"1230","SStegemeyer","Pasco, FL",28.3232418,-82.4319405,"Florida"
"1232","WheresMiles","New Jersey, USA",40.0583238,-74.4056612,"New Jersey"
"1235","dawn79364216","Michigan",44.3148443,-85.6023643,"Michigan"
"1236","Brentos3","ATL ",33.6407282,-84.4277001,"Georgia"
"1237","MenagerieWorks","Colorado, USA",39.5500507,-105.7820674,"Colorado"
"1238","LKTuffaha","Washington, USA",47.7510741,-120.7401385,"Washington"
"1240","KimberlyInNYC","NYC",40.7127753,-74.0059728,"New York"
"1243","MelDuganRealtor","Williamston, SC",34.6184471,-82.4779053,"South Carolina"
"1244","AmericNews","Venezuela",6.42375,-66.58973,"South Carolina"
"1248","buckingham_sir","Dominique <U+0001F30E> Tao - JeetKuneDo",30.4351063,-97.6745899,"Texas"
"1249","Br1annathomas","pursuit of happiness",43.4067548,-124.2359285,"Oregon"
"1250","JalenooperDogg","The Mountains",46.832042,-111.952657,"Montana"
"1252","battleborngoali","A microwave in Nevada",37.8380795,-94.3565056,"Missouri"
"1255","sinrujin","hiatus.",32.8502043,-96.8185392,"Texas"
"1256","jonathanwtea","Shark River Hills, NJ",40.1940022,-74.0487493,"New Jersey"
"1258","slimbellybella","nawf",32.7863906,-97.0439878,"Texas"
"1261","Aim911","Greenwood, IN",39.6136578,-86.1066526,"Indiana"
"1262","ATLHawks_Talk","Atlanta, GA",33.7489954,-84.3879824,"Georgia"
"1266","JaedynWynde","where are all the peanut m&m's",30.6913061,-88.0432367,"Alabama"
"1267","brianlong","Boulder, CO",40.0149856,-105.2705456,"Colorado"
"1268","agargmd","Chicago, IL",41.8781136,-87.6297982,"Illinois"
"1270","Ivisi","Orlando, FL",28.5383355,-81.3792365,"Florida"
"1271","lizzynjay","East Bay",44.962274,-89.6362,"Wisconsin"
"1273","newslarts","New York, NY",40.7127753,-74.0059728,"New York"
"1274","HannahHusmann","Columbia, MO",38.9517053,-92.3340724,"Missouri"
"1275","PurpleKhaos"," Mayo",36.1510981,-95.992371,"Oklahoma"
"1276","bytekast","Boulder, CO",40.0149856,-105.2705456,"Colorado"
"1277","_DesPain_","'Burbs, Ma USA ",42.4072107,-71.3824374,"Massachusetts"
"1279","desmondevers","Virginia, USA",37.4315734,-78.6568942,"Virginia"
"1280","SRHallidaySLP","The Heart of Virginia",37.3977531,-79.1802797,"Virginia"
"1281","lisaisdumb","No. ",36.670501,-95.936232,"Oklahoma"
"1282","acowan25","Los Angeles, CA",34.0522342,-118.2436849,"California"
"1283","orlovnord2","New York, USA",40.7127753,-74.0059728,"New York"
"1284","kathystover","Northern California",38.8375215,-120.8958242,"California"
"1285","laney_am","Houston, Texas ",29.7604267,-95.3698028,"Texas"
"1286","lucky_ducky101","Stockton, California, USA",37.9577016,-121.2907796,"California"
"1287","HTFDFW","Dallas, TX",32.7766642,-96.7969879,"Texas"
"1288","IamHRodriques","Atlanta GA ",33.7489954,-84.3879824,"Georgia"
"1289","FarmFairyCrafts","Oregon, USA",43.8041334,-120.5542012,"Oregon"
"1290","galleonvirtual","DFW",32.8998091,-97.0403352,"Texas"
"1291","wilsonjmashaka","Tanga, Tanzania",-5.0888751,39.1023228,"Texas"
"1292","megdoyle","Trent Woods, NC",35.0821039,-77.0863383,"North Carolina"
"1293","stahnma","Madison, WI",43.0730517,-89.4012302,"Wisconsin"
"1294","davidmuller412","PHX",33.4372686,-112.0077881,"Arizona"
"1295","kirilllapinl7","Seattle, WA",47.6062095,-122.3320708,"Washington"
"1296","EHUNTER55","THE BURGH",40.444812,-79.994661,"Pennsylvania"
"1297","noturpalsis"," Nashville",36.1626638,-86.7816016,"Tennessee"
"1298","muhamadiqbaldar","Kokernag Anantnag Kashmir",33.5846628,75.3047747,"Tennessee"
"1301","NonaTechCo","San Francisco, CA",37.7749295,-122.4194155,"California"
"1302","TrevorWhitehead","California, USA",36.778261,-119.4179324,"California"
"1303","editingemily","Denver, CO",39.7392358,-104.990251,"Colorado"
"1304","IBspiders","Concord, NC, USA",35.4087517,-80.579511,"North Carolina"
"1306","nochnoy_dozor","Denial",36.750583,-95.9748949,"Oklahoma"
"1309","healthknots","Charlotte NC",35.2270869,-80.8431267,"North Carolina"
"1312","beachbum04064","Maine, USA",45.253783,-69.4454689,"Maine"
"1314","MillerMathTeach","Texas, USA",31.9685988,-99.9018131,"Texas"
"1315","penguins630","Naperville, IL",41.7508391,-88.1535352,"Illinois"
"1316","SharenKoran","San Diego",32.715738,-117.1610838,"California"
"1317","lexiepena1","New Bedford, MA",41.6362152,-70.934205,"Massachusetts"
"1321","NenadMikovic773","Chicago, IL",41.8781136,-87.6297982,"Illinois"
"1323","PrttyNellz","SoCal ",34.9592083,-116.419389,"California"
"1326","senchristian4","Naperville, IL",41.7508391,-88.1535352,"Illinois"
"1327","chloegendrano","Los Angeles, CA",34.0522342,-118.2436849,"California"
"1328","Chinchillazllla","Kentucky",37.8393332,-84.2700179,"Kentucky"
"1329","rileyyhangerr","Ohio, USA",40.4172871,-82.907123,"Ohio"
"1330","DE4DPIXL","Turku, Finland",60.4518126,22.2666302,"Ohio"
"1333","kkmassiatte","Obetz, OH",39.8789527,-82.9507363,"Ohio"
"1334","kelsiehudgens","texas",31.9685988,-99.9018131,"Texas"
"1335","cowtung","Berkeley, CA",37.8715926,-122.272747,"California"
"1336","Rednolas117","San Diego, CA",32.715738,-117.1610838,"California"
"1337","AleshiaNicole","Philadelphia , PA",39.9525839,-75.1652215,"Pennsylvania"
"1338","Im_VelvetJones","Long Beach, CA",33.7700504,-118.1937395,"California"
"1340","IsaacGSmith","San Francisco, CA",37.7749295,-122.4194155,"California"
"1341","jalanveerkamp","Michigan, USA",44.3148443,-85.6023643,"Michigan"
"1342","soccermomTEX","Helotes, TX",29.5780056,-98.6897451,"Texas"
"1343","coffeepleaseRN","Earth",37.2321077,-95.7243335,"Kansas"
"1344","ambettano","Boston, MA",42.3600825,-71.0588801,"Massachusetts"
"1345","somelsays","San Jose, CA",37.3382082,-121.8863286,"California"
"1346","KarlChristian","Denver, CO",39.7392358,-104.990251,"Colorado"
"1350","Patty_Fingers","Orem, UT",40.2968979,-111.6946475,"Utah"
"1351","jshepp121","Knoxville, TN",35.9606384,-83.9207392,"Tennessee"
"1352","wtaptelevision","Parkersburg, WV",39.2667418,-81.5615135,"West Virginia"
"1353","msmingelsmusic","Cumberland, RI",41.9721816,-71.4061876,"Rhode Island"
"1354","AruniKashyap","Athens, GA",33.9519347,-83.357567,"Georgia"
"1356","Julietree5","Anderson, SC",34.5034394,-82.6501332,"South Carolina"
"1357","ridandelous","Boone, NC",36.216795,-81.6745517,"North Carolina"
"1358","kenjensen24","So cal",34.9592083,-116.419389,"California"
"1359","MalaikaAdero","New York City, Atlanta",33.851772,-84.3640888,"Georgia"
"1360","wuzzhashin","302",37.0565248,-95.7109391,"Kansas"
"1365","delshaffer","Charleston, SC",32.7764749,-79.9310512,"South Carolina"
"1366","alemanalexis_","Corpus Christi, TX",27.8005828,-97.396381,"Texas"
"1367","thaofficialtati","New York, NY",40.7127753,-74.0059728,"New York"
"1369","DavidKingGod","Bend, OR",44.0581728,-121.3153096,"Oregon"
"1370","shibabeenu","Fall River, MA",41.7014912,-71.1550451,"Massachusetts"
"1371","AntigoDJ","Antigo, WI",45.140245,-89.1523353,"Wisconsin"
"1372","ViraBurnayeva","NoVA, USA",45.4604,-122.788377,"Oregon"
"1373","abigaylehailey","San Marcos, TX",29.8832749,-97.9413941,"Texas"
"1374","DaraLieb","Washington/Arlington",48.1987118,-122.1251418,"Washington"
"1375","juliekiel","Owatonna, Minnesota",44.0855572,-93.2259349,"Minnesota"
"1378","morgangrace23","Tulsa, OK",36.1539816,-95.992775,"Oklahoma"
"1380","Flu_Wizzle","Lakeland , FL",28.0394654,-81.9498042,"Florida"
"1381","sw1ssmystery","Charlottesville, VA",38.0293059,-78.4766781,"Virginia"
"1383","cyborgQT","Louisiana ",30.9842977,-91.9623327,"Louisiana"
"1384","SaigeLovell","Boston, MA",42.3600825,-71.0588801,"Massachusetts"
"1385","MaerynObley","Philadelphia",39.9525839,-75.1652215,"Pennsylvania"
"1388","danieljg511","Claremont, CA",34.0966764,-117.7197785,"California"
"1391","Rhino78","Austin, TX",30.267153,-97.7430608,"Texas"
"1392","wweek","Portland, Ore.",45.5122308,-122.6587185,"Oregon"
"1393","heavenlybreann","Tulare California",36.2077288,-119.3473379,"California"
"1396","ShepardKaitlynn","Palmer, AK",61.5997222,-149.1127777,"Alaska"
"1397","DevanRoeOG","Dayton, OH",39.7589478,-84.1916069,"Ohio"
"1398","StargateShaman","Texas & New Mexico ",31.9685988,-99.9018131,"Texas"
"1400","eliaskerii","indiana | <U+0001F40D><U+2650><U+2694><U+FE0F><U+2600><U+FE0F>| he/him",40.2671941,-86.1349019,"Indiana"
"1402","adam_dill","Elgin, IL",42.0354084,-88.2825668,"Illinois"
"1403","i_ced","Los Angeles, CA",34.0522342,-118.2436849,"California"
"1405","lvoryBrony","Flip Yeah Michigan",44.3148443,-85.6023643,"Michigan"
"1407","95bravo1994","California, USA",36.778261,-119.4179324,"California"
"1408","TakeThatCDC","Atlanta, GA",33.7489954,-84.3879824,"Georgia"
"1409","Hannahf73943122","Miami ",25.7616798,-80.1917902,"Florida"
"1410","DskoHicks","Georgia, USA",32.1656221,-82.9000751,"Georgia"
"1411","MoNiq_DoMiniq","Newport News, VA",37.0870821,-76.4730122,"Virginia"
"1412","HannnahhSheeetz","Maryland, USA",39.0457549,-76.6412712,"Maryland"
"1413","emociional82","Ohio, USA",40.4172871,-82.907123,"Ohio"
"1414","Brranday","California",36.778261,-119.4179324,"California"
"1415","ThriveFit","Springfield, MO",37.2089572,-93.2922989,"Missouri"
"1417","TheDZGran","Just south of success...",35.1079369,-90.0332988,"Tennessee"
"1422","xoxokshirelle","North Carolina, USA",35.7595731,-79.0192997,"North Carolina"
"1423","MsSparrow23","Denver, CO ",39.7392358,-104.990251,"Colorado"
"1427","andrewgallero","California, USA",36.778261,-119.4179324,"California"
"1429","SterbenzScott","Alcatraz ",37.8269775,-122.4229555,"California"
"1430","bruber_j","NC",35.7595731,-79.0192997,"North Carolina"
"1431","inzza_","Perfume",36.0636465,-95.8819325,"Oklahoma"
"1432","johnpopevil","Georgia, USA",32.1656221,-82.9000751,"Georgia"
"1433","DDenney1029","North Las Vegas, NV",36.1988592,-115.1175013,"Nevada"
"1434","betosanc","Miami, Florida.",25.7616798,-80.1917902,"Florida"
"1437","natfos","<U+2694><U+FE0F> MSU '19 • she/her • BLM <U+2694><U+FE0F>",42.701848,-84.4821719,"Michigan"
"1438","discgman","Sacramento, CA",38.5815719,-121.4943996,"California"
"1440","TheRayvanman","Idaho, USA",44.0682019,-114.7420408,"Idaho"
"1441","Iamjpevans","Home but going to travel soon,",51.570046,0.1842505,"Idaho"
"1443","mvrixh","htx",29.7552928,-95.3553688,"Texas"
"1444","Winningwillie","Connecticut",41.6032207,-73.087749,"Connecticut"
"1448","Local__Luke","Earth",37.2321077,-95.7243335,"Kansas"
"1449","WxOneNews","Charlotte, NC",35.2270869,-80.8431267,"North Carolina"
"1450","Koboxer2380","Maine, USA",45.253783,-69.4454689,"Maine"
"1451","mankey7777","West Texas",31.8023831,-97.0916692,"Texas"
"1453","clams_kessino","Austin, TX",30.267153,-97.7430608,"Texas"
"1455","khuangedu","New Jersey",40.0583238,-74.4056612,"New Jersey"
"1456","DocOlmstead","Apopka",28.6934076,-81.5322149,"Florida"
"1457","andrezaffc_","fc barcelona; ",40.7551374,-73.9760147,"New York"
"1458","Broder512","Virginia, USA",37.4315734,-78.6568942,"Virginia"
"1459","RetiremntWisdom","Princeton",40.3439888,-74.6514481,"New Jersey"
"1460","MonkeyHannah","oaktown, baby.",37.8043637,-122.2711137,"California"
"1463","littleinseoo","EVERYWHERE",33.7589188,-84.3640829,"Georgia"
"1464","K_Apps_928","Newark/State College",40.7414635,-74.173545,"New Jersey"
"1465","roport","New York ",40.7127753,-74.0059728,"New York"
"1466","JackieeOH_","Georgia ",32.1656221,-82.9000751,"Georgia"
"1467","carrissa_j","Barbados",13.193887,-59.543198,"Georgia"
"1469","AngieStar78","Ledyard, CT",41.4456444,-72.0181743,"Connecticut"
"1471","David_Fischer71","Michigan, USA",44.3148443,-85.6023643,"Michigan"
"1472","Blau_Rascon","Pennsylvania, USA",41.2033216,-77.1945247,"Pennsylvania"
"1474","egcharismolling","Boston, MA",42.3600825,-71.0588801,"Massachusetts"
"1475","chrstnajv","Hawaii, USA",19.8967662,-155.5827818,"Hawaii"
"1477","bposhea","Atlanta, Ga",33.7489954,-84.3879824,"Georgia"
"1478","cateydel","Brooklyn Park, MN",45.0941315,-93.3563405,"Minnesota"
"1479","ElementCare","Massachusetts, USA",42.4072107,-71.3824374,"Massachusetts"
"1481","myDocUrgentCare","Philadelphia, PA",39.9525839,-75.1652215,"Pennsylvania"
"1483","ShitBrick34","in the pit",44.934949,-93.262284,"Minnesota"
"1485","hokieprorichie","Blacksburg, VA ",37.2295733,-80.4139393,"Virginia"
"1486","pavanmoondi","LA",34.0522342,-118.2436849,"California"
"1487","X_A_Y","Akron, OH",41.0814447,-81.5190053,"Ohio"
"1488","LotLotLotAmber","Kentucky",37.8393332,-84.2700179,"Kentucky"
"1491","CristyDwyer","New York, NY",40.7127753,-74.0059728,"New York"
"1494","sweetsteph09","California",36.778261,-119.4179324,"California"
"1495","karmun92","Northeast Jersey",40.0583238,-74.4056612,"New Jersey"
"1496","BrittanyCote94","At the races!",39.6988707,-75.922187,"Maryland"
"1497","kirtland_pta","Kirtland, OH",41.6289365,-81.3614985,"Ohio"
"1499","katwarner3","Pennsylvania, USA",41.2033216,-77.1945247,"Pennsylvania"
"1504","camareno","607-A W. MLK, Jr. Blvd. Tampa,",27.9820077,-82.466358,"Florida"
"1505","moekaye1","on the road",32.7980982,-96.8338877,"Texas"
"1506","hollydwood","Kentucky",37.8393332,-84.2700179,"Kentucky"
"1507","bluv502","Louisville, KY",38.2526647,-85.7584557,"Kentucky"
"1508","Lj_Sichko","Ashtabula, OH",41.8650534,-80.7898089,"Ohio"
"1509","JollyMollyDay","queer",47.6147979,-122.3179931,"Washington"
"1510","ladydebidebz1","Durban, South Africa",-29.8586804,31.0218404,"Washington"
"1511","goldenwavves","California, USA",36.778261,-119.4179324,"California"
"1512","RoseVicJohn","New York, USA",40.7127753,-74.0059728,"New York"
"1513","reynaldor36","Holden, MA",42.3517585,-71.8634062,"Massachusetts"
"1514","abc15","Phoenix, AZ",33.4483771,-112.0740373,"Arizona"
"1515","kaycasey","Charleston, SC",32.7764749,-79.9310512,"South Carolina"
"1516","MTSManagement","Pittsburgh, PA",40.4406248,-79.9958864,"Pennsylvania"
"1518","uihealthcare","Iowa City, Iowa",41.6611277,-91.5301683,"Iowa"
"1519","ShannaPea_","Thibodaux, LA",29.7957633,-90.822871,"Louisiana"
"1521","skinnyIisa","Lost",36.834603,-94.6171303,"Missouri"
"1522","AlgTaken","hell",42.43472,-83.985,"Michigan"
"1524","Montana_Tweets","Big Sky",45.2617806,-111.3080244,"Montana"
"1525","JumpAlyssa","Oologah Oklahoma ",36.4470387,-95.708315,"Oklahoma"
"1526","makeupbycess","California, USA",36.778261,-119.4179324,"California"
"1527","MileHighJay","The City of Seven Hills",41.9027835,12.4963655,"California"
"1529","psepi","Boulder City, Nevada USA",35.9782216,-114.8345117,"Nevada"
"1530","harmanxhundal","LA Born // Seattle Raised",47.662691,-122.378401,"Washington"
"1531","marshallfoxy","Eugene, OR",44.0520691,-123.0867536,"Oregon"
"1534","PCreighton1","Houston",29.7604267,-95.3698028,"Texas"
"1535","ElizabethCarml","Newport Coast, CA",33.5973864,-117.8369007,"California"
"1536","Liddy_jean13","St Louis, MO",38.6270025,-90.1994042,"Missouri"
"1538","cashmoneychlo_","Nashville, TN",36.1626638,-86.7816016,"Tennessee"
"1539","patricknathan","Minneapolis, MN",44.977753,-93.2650108,"Minnesota"
"1540","DawnNeufeld","Texas",31.9685988,-99.9018131,"Texas"
"1541","hellokerryrose","Worcester, MA",42.2625932,-71.8022934,"Massachusetts"
"1543","wesrucker247","Knoxville, Tennessee",35.9606384,-83.9207392,"Tennessee"
"1544","Nenigirlontheb1","Virginia Beach, VA",36.8529263,-75.977985,"Virginia"
"1547","B0WENarrow","Baltimore, MD",39.2903848,-76.6121893,"Maryland"
"1551","RiverFloww","Atlanta, GA / New Orleans, La",29.8991356,-90.0622862,"Louisiana"
"1553","bass_drum_dylan","Royse City, TX",32.9751204,-96.3324817,"Texas"
"1557","jasminegrosse","Texas, USA",31.9685988,-99.9018131,"Texas"
"1558","JeanLucMeisel","Everywhere.",33.7589188,-84.3640829,"Georgia"
"1560","amy_sitwala","Chicago, IL",41.8781136,-87.6297982,"Illinois"
"1561","taco_mama","Los Angeles, CA",34.0522342,-118.2436849,"California"
"1563","imlowkeyEXOchen","Orange Grove, Tx",27.9566843,-97.9369447,"Texas"
"1564","omega3825","Florida, USA",27.6648274,-81.5157535,"Florida"
"1565","MicahChatterton","Riverside, CA",33.9806005,-117.3754942,"California"
"1569","MissyWatters98","Texas",31.9685988,-99.9018131,"Texas"
"1570","fakeArian","Northern VA/Washington DC",38.846755,-77.1159,"Virginia"
"1571","JimiLightspeed","Seattle",47.6062095,-122.3320708,"Washington"
"1578","misstoshaboo","Las Vegas, NV",36.1699412,-115.1398296,"Nevada"
"1579","TrtDana","Las Vegas, NV",36.1699412,-115.1398296,"Nevada"
"1583","TexasQueen4Ever","Out of Reach",39.9864848,-75.5668331,"Pennsylvania"
"1584","gingers715","South Lebanon, OH",39.3708927,-84.2132698,"Ohio"
"1585","hiparnold","Fort Lauderdale Florida",26.1224386,-80.1373174,"Florida"
"1588","bradleyjamess","Cincinnati, OH",39.1031182,-84.5120196,"Ohio"
"1589","BertrandSandjo2","Lubbock, TX",33.5778631,-101.8551665,"Texas"
"1590","alayna_kam","Cleveland, OH",41.49932,-81.6943605,"Ohio"
"1591","Wedsxaddams","The upside down",41.9242452,-87.6993324,"Illinois"
"1592","45Disclaimers","Washington, USA",47.7510741,-120.7401385,"Washington"
"1593","revdonna","Los Angeles, CA",34.0522342,-118.2436849,"California"
"1594","RealHeatherK","Loganville, GA",33.8389977,-83.9007382,"Georgia"
"1596","LEONARD2273","jacksonville, FL ",30.3321838,-81.655651,"Florida"
"1597","BookNerd0486","California, USA",36.778261,-119.4179324,"California"
"1598","sbaio_blcked_me","Ohio, USA",40.4172871,-82.907123,"Ohio"
"1599","PoetryAlive","Asheville, NC",35.5950581,-82.5514869,"North Carolina"
"1600","RachaelButera","Pittsburgh, PA",40.4406248,-79.9958864,"Pennsylvania"
"1603","mochegato","Kansas, USA",39.011902,-98.4842465,"Kansas"
"1605","alex_cna6","Colorado, USA",39.5500507,-105.7820674,"Colorado"
"1608","swainspr","Ohio, USA",40.4172871,-82.907123,"Ohio"
"1609","lwtsugarlips","g",37.0412191,-95.6393167,"Kansas"
"1611","_heykaro","Tampa, FL",27.950575,-82.4571776,"Florida"
"1612","LittleRockWBB","Little Rock, AR",34.7464809,-92.2895948,"Arkansas"
"1613","ReginaPhelps","San Francisco, CA",37.7749295,-122.4194155,"California"
"1615","niTanVieja","Tucusiapon del Norte",33.0144484,-117.1214139,"California"
"1616","onmybsagain","Austin, TX",30.267153,-97.7430608,"Texas"
"1622","mama_knc","Missouri, USA",37.9642529,-91.8318334,"Missouri"
"1623","des_dawnn","660",42.3518415,-71.0624303,"Massachusetts"
"1624","nota_bennett","San Francisco, CA",37.7749295,-122.4194155,"California"
"1626","TheRealTYRIUM","Watertown, CT",41.6062042,-73.1183397,"Connecticut"
"1627","RicqualMachip","North Dakota, USA",47.5514926,-101.0020119,"North Dakota"
"1628","popcornouveau","New Jersey",40.0583238,-74.4056612,"New Jersey"
"1629","EatKetoWithMe","Seattle, WA",47.6062095,-122.3320708,"Washington"
"1630","mrdickenstein","McKinney, TX",33.1972465,-96.6397822,"Texas"
"1631","MarieSpeakman","Fargo, ND",46.8771863,-96.7898034,"North Dakota"
"1633","JayDee_DaDon","Neptune, NJ",40.2091219,-74.0386271,"New Jersey"
"1636","tardis_laydee","Space",36.7499658,-95.9626008,"Oklahoma"
"1637","J_biscuit72","Dirty South Tejas",33.9894529,-83.7381732,"Georgia"
"1639","jstagliareni","Iowa, USA",41.8780025,-93.097702,"Iowa"
"1640","WinslowDumaine","Chicago, IL",41.8781136,-87.6297982,"Illinois"
"1641","ItsJustPay","Chicago",41.8781136,-87.6297982,"Illinois"
"1642","dchoiceofficial","Houston, TX",29.7604267,-95.3698028,"Texas"
"1643","KathiLaNasa","Pennsylvania, USA",41.2033216,-77.1945247,"Pennsylvania"
"1645","ImRaeesaBTW","blackburn | leeds",40.52824,-79.650689,"Pennsylvania"
"1646","MysticMeerkat","The Lobby",39.7534123,-104.9886951,"Colorado"
"1648","TheLindus","nashville, obviously",36.1626638,-86.7816016,"Tennessee"
"1649","theemeens","Indianapolis, IN",39.768403,-86.158068,"Indiana"
"1650","Coleah","No. Central Missouri",38.97645,-92.328842,"Missouri"
"1651","britneyjparks","tulsa, ok",36.1539816,-95.992775,"Oklahoma"
"1652","TheKevinFertig","Fishers, IN",39.9567548,-86.01335,"Indiana"
"1653","wakeupangry","Chicago, IL",41.8781136,-87.6297982,"Illinois"
"1654","recordherald","Washington Court House, Ohio",39.5364511,-83.4390843,"Ohio"
"1655","JaymeKFraser","Missoula, MT",46.8721284,-113.9940314,"Montana"
"1656","ChrisKirschner","Atlanta, GA",33.7489954,-84.3879824,"Georgia"
"1657","zproxy","Antartica",-82.862752,135,"Georgia"
"1659","james3hart","Baldwin City, KS",38.775007,-95.1863603,"Kansas"
"1662","CyndiSparre","Here",36.7435531,-95.9359977,"Oklahoma"
"1663","slime_Flu_","Washington Heights, New York",40.8417082,-73.9393554,"New York"
"1665","J9DC","New Jersey",40.0583238,-74.4056612,"New Jersey"
"1666","GetGuapNooskie","Convent, Louisiana",30.0207933,-90.8300269,"Louisiana"
"1667","HaygoodLaw","Odessa, TX",31.8456816,-102.3676431,"Texas"
"1668","NursePatrickQ","Los Angeles via Pittsburgh",34.0522342,-118.2436849,"California"
"1669","NauticalTank","Tampa, FL",27.950575,-82.4571776,"Florida"
"1670","StLouisMB","St. Louis Mo",38.6270025,-90.1994042,"Missouri"
"1671","NMyLife","Chesapeake, VA  <U+0001F1FA><U+0001F1F2>",36.7682088,-76.2874927,"Virginia"
"1673","Just_Kerrri","Cleveland, OH",41.49932,-81.6943605,"Ohio"
"1675","JennileeWS","Texas",31.9685988,-99.9018131,"Texas"
"1676","beerinslaywood","Clearfield, UT",41.1107771,-112.0260538,"Utah"
"1677","NancyTran88","San Diego, CA",32.715738,-117.1610838,"California"
"1678","LMLMead","Rochester NY",43.1565779,-77.6088465,"New York"
"1681","arcturusii","LP, MN USA",45.9746867,-94.8655775,"Minnesota"
"1685","sydneymelvin31","Louisiana, USA",30.9842977,-91.9623327,"Louisiana"
"1686","Koedel526","Michigan, USA",44.3148443,-85.6023643,"Michigan"
"1688","AmericanJedi63","Texas, USA",31.9685988,-99.9018131,"Texas"
"1689","troysgirl","Tampa Florida",27.950575,-82.4571776,"Florida"
"1691","upnorthlive","Traverse City",44.7630567,-85.6206317,"Michigan"
"1692","benrapeisberger","Charm City",39.2903848,-76.6121893,"Maryland"
"1694","_annacathleen_","North Carolina, USA",35.7595731,-79.0192997,"North Carolina"
"1695","Hayliib","texas state university",29.888411,-97.938351,"Texas"
"1696","suzthom79","Chicago -R.I. -Vero Beach",41.9148113,-87.6251085,"Illinois"
"1698","BoxedCatGamers","Pennsylvania, USA",41.2033216,-77.1945247,"Pennsylvania"
"1700","RobertJMartinTX","New York City",40.7127753,-74.0059728,"New York"
"1701","van_van023","San Antonio, TX",29.4241219,-98.4936282,"Texas"
"1702","InMy_OwnWords","Univ. of Alabama",33.2140233,-87.5391418,"Alabama"
"1704","typeatweets","Wisconsin, USA",43.7844397,-88.7878678,"Wisconsin"
"1705","Jon__Reed","Knoxville",35.9606384,-83.9207392,"Tennessee"
"1707","lwmallard","Alpharetta, GA",34.0753762,-84.2940899,"Georgia"
"1710","littlelyviajean","North Carolina, USA",35.7595731,-79.0192997,"North Carolina"
"1712","mmw_lmw","La Jolla, CA. USA",32.8328112,-117.2712717,"California"
"1715","WestonALF","Weston, FL",26.1003654,-80.3997748,"Florida"
"1717","kncrvl","Columbus, OH",39.9611755,-82.9987942,"Ohio"
"1718","dancesdivergent","PNW",41.5803315,-87.4743669,"Indiana"
"1719","buenaparknews","Buena Park, CA",33.8674044,-117.9981387,"California"
"1720","iamshakeena","Chelsea",42.3917638,-71.0328284,"Massachusetts"
"1721","JillianMayer","FLA  /// USA",27.6648274,-81.5157535,"Florida"
"1725","TheBahati","Is Everything",39.747624,-75.309831,"New Jersey"
"1730","pizzadunks","corn hell",36.8564014,-119.9627277,"California"
"1731","FingerLakes1","Seneca Falls, NY",42.9106219,-76.7966215,"New York"
"1734","mufid","Milky Way",42.3144108,-71.1040509,"Massachusetts"
"1735","angelinarose__","Austin, TX",30.267153,-97.7430608,"Texas"
"1738","andrebugotti","Hidden Hills, CA",34.1602832,-118.6523096,"California"
"1739","DRdiabloTHW","Old Bridge, NJ via Shaolin",40.4128551,-74.307282,"New Jersey"
"1740","candacerthomas","Irvine, California",33.6845673,-117.8265049,"California"
"1741","lukedgilman","Rowan University",39.7098595,-75.1189478,"New Jersey"
"1742","jtruglio","Saint Augustine, FL",29.9012437,-81.3124341,"Florida"
"1743","NChiral","in my parents' basement",33.7756673,-84.2723603,"Georgia"
"1744","lionellimcoolll","West Region, Singapore",1.4578955,103.7949187,"Georgia"
"1745","artkincell","CT USA My soul is everywhere.",41.6032207,-73.087749,"Connecticut"
"1749","__mickkyy","Oklahoma, USA",35.0077519,-97.092877,"Oklahoma"
"1750","katiejoyofosho","New York, NY",40.7127753,-74.0059728,"New York"
"1751","tamholland","Mostly Croatia & California",45.1,15.2000001,"New York"
"1752","LasTrain2London","divebar on the eastside <U+0001F943><U+0001F919><U+0001F3FD>",36.1886612,-86.7286557,"Tennessee"
"1754","cherie_lily","Willow Springs, MO",36.9922768,-91.9698742,"Missouri"
"1755","AlphaCatPA","Pennsylvania, USA",41.2033216,-77.1945247,"Pennsylvania"
"1756","AnnekeTweets","Capital District, NY",42.71581,-73.814473,"New York"
"1757","kevinjohn334","Pasadena, TX",29.6910625,-95.2091006,"Texas"
"1758","7th_Polk","Lynchburg, Va",37.4137536,-79.1422464,"Virginia"
"1760","LMGesmundo","New York, NY",40.7127753,-74.0059728,"New York"
"1761","ProfileTreeCali","California",36.778261,-119.4179324,"California"
"1762","SeanWestaway","NC & MA -- PEI & Nova Scotia",35.7595731,-79.0192997,"North Carolina"
"1763","texasguardian","Texas, USA",31.9685988,-99.9018131,"Texas"
"1765","joseph_struhs","Salt Lake City, UT",40.7607793,-111.8910474,"Utah"
"1768","Malkley1","Texas, USA",31.9685988,-99.9018131,"Texas"
"1769","reynaa_lara","Houston",29.7604267,-95.3698028,"Texas"
"1770","HousatonicITS","Connecticut and Massachusetts, USA",41.9915062,-72.7017741,"Connecticut"
"1773","realdowntownkb","San Diego, CA",32.715738,-117.1610838,"California"
"1775","TeeexasAngeeel","Pearland, TX",29.5635666,-95.2860474,"Texas"
"1777","helokidie","phoenix",33.4483771,-112.0740373,"Arizona"
"1778","KimbaSnowpaw","Bakersfield, CA",35.3732921,-119.0187125,"California"
"1780","amandamondrag","terabithia",38.5661615,-94.9933489,"Kansas"
"1782","DiaDiaFlu","Contato: DM",36.1898395,-95.9469936,"Oklahoma"
"1785","katiepearlman","Long Island",40.789142,-73.134961,"New York"
"1787","MBrenowitz","Roswell, GA",34.0232431,-84.3615555,"Georgia"
"1790","WQYBradio","Delaware",38.9108325,-75.5276699,"Delaware"
"1791","KidCubatao","Racoon city",37.489193,-82.4374874,"Kentucky"
"1792","NextLevelIL","Chicago, IL",41.8781136,-87.6297982,"Illinois"
"1794","Miss_Alderaan","boston",42.3600825,-71.0588801,"Massachusetts"
"1795","KathySylvie","Austin, TX",30.267153,-97.7430608,"Texas"
"1796","JohnS952","Long Island",40.789142,-73.134961,"New York"
"1799","avrilanche","Colorado",39.5500507,-105.7820674,"Colorado"
"1800","themountidadail","Mount Ida , Ar",34.5567637,-93.6340814,"Arkansas"
"1801","CallithAppleton","Second Life",37.8002006,-122.4017511,"California"
"1802","TerryLeeMiller","Tyler,Texas",32.3512601,-95.3010624,"Texas"
"1803","kotyy","Oklahoma City, OK",35.4675602,-97.5164276,"Oklahoma"
"1804","BobInBoulder","Boulder, CO",40.0149856,-105.2705456,"Colorado"
"1806","Kirstinaaker","Minnesota",46.729553,-94.6858998,"Minnesota"
"1807","KristinDykes1","Tennessee, USA",35.5174913,-86.5804473,"Tennessee"
"1808","CasualFolami","North Carolina",35.7595731,-79.0192997,"North Carolina"
"1809","JuanAC33","California, USA",36.778261,-119.4179324,"California"
"1810","Samuel44903790","North Carolina, USA",35.7595731,-79.0192997,"North Carolina"
"1811","lotsgoingon","Owings Mills, MD",39.4195499,-76.7802528,"Maryland"
"1812","Hockeygrrls","Denver, CO",39.7392358,-104.990251,"Colorado"
"1813","devjordan_23","Los Angeles, CA",34.0522342,-118.2436849,"California"
"1814","NWambach","Mount Clemens, MI",42.5972563,-82.8779754,"Michigan"
"1816","CuzzinBailey","St Petersburg, FL",27.7676008,-82.6402915,"Florida"
"1817","Megan_allen22","Mathis, TX",28.0944558,-97.8280543,"Texas"
"1820","laynadaviss","Tifton, GA",31.4504629,-83.5084973,"Georgia"
"1821","GonzaAshlee","San Marcos, Texas",29.8832749,-97.9413941,"Texas"
"1823","Walgreens","Chicago, IL",41.8781136,-87.6297982,"Illinois"
"1824","transita18","Texas, USA",31.9685988,-99.9018131,"Texas"
"1825","EdCara4","New York City",40.7127753,-74.0059728,"New York"
"1828","rissa_roo92","Atlanta, GA",33.7489954,-84.3879824,"Georgia"
"1829","kissofkira","Forbidden Forrest, Hogwarts",28.4721051,-81.4737719,"Florida"
"1830","LoriKPoetry","NH",43.1938516,-71.5723953,"New Hampshire"
"1832","CodySexton5477","Wartburg, TN",36.1047979,-84.597162,"Tennessee"
"1833","CallmeMr_CM","C-137",32.3219678,-111.0054195,"Arizona"
"1834","HarveyMultani","San Francisco",37.7749295,-122.4194155,"California"
"1835","caljam1","los angeles",34.0522342,-118.2436849,"California"
"1837","bargaincellar","Ormond Beach",29.2858129,-81.0558894,"Florida"
"1838","FarmersJackie","Skiatook, OK",36.3684245,-96.0013847,"Oklahoma"
"1840","PublicHealthUMN","Minnesota",46.729553,-94.6858998,"Minnesota"
"1841","Queenofriches","Michigan, USA",44.3148443,-85.6023643,"Michigan"
"1842","svetleci_krimic","Belgrade, Republic of Serbia",44.786568,20.4489216,"Michigan"
"1843","greatshades","Western US traveler",32.4409082,-104.2585728,"New Mexico"
"1845","aandreanichole","Crane, TX",31.3973624,-102.3501419,"Texas"
"1846","ReBourneAgain","Tulalip, Washington",48.0652566,-122.2813224,"Washington"
"1847","Mr_GuyWise","PA",41.2033216,-77.1945247,"Pennsylvania"
"1848","GameBros_Show","Miami, FL",25.7616798,-80.1917902,"Florida"
"1849","GirlsATRockShow","Tulsa.... and Tampa ",36.0446901,-95.9582401,"Oklahoma"
"1853","KingdomWaffles","Tennessee, USA",35.5174913,-86.5804473,"Tennessee"
"1854","avaholic65","Colorado.",39.5500507,-105.7820674,"Colorado"
"1855","KatEqlysm","Oregon",43.8041334,-120.5542012,"Oregon"
"1858","afreeze21","Los Angeles, CA",34.0522342,-118.2436849,"California"
"1859","alexisannx","Grand Forks, ND",47.9252568,-97.0328547,"North Dakota"
"1860","graywuvskookies","Hope World (jk New York)",40.7127753,-74.0059728,"New York"
"1861","BenStancliff","Smashville, TN",35.93509,-86.827158,"Tennessee"
"1862","calebjtarrien","<U+0001D657><U+0001D66E> <U+0001D667><U+0001D656><U+0001D663><U+0001D659><U+0001D66E>",36.0828051,-95.8678254,"Oklahoma"
"1864","PB_News","Rochester, MN",44.0121221,-92.4801989,"Minnesota"
"1867","LoriRuder","Cleveland, OH",41.49932,-81.6943605,"Ohio"
"1871","BComptonNHL","Long Island/NYC",40.7127753,-74.0059728,"New York"
"1872","jssra_","Los Angeles, CA",34.0522342,-118.2436849,"California"
"1873","tucksnews","Austin, Texas",30.267153,-97.7430608,"Texas"
"1874","Dear_Njams","London | Nairobi | New York",40.7127753,-74.0059728,"New York"
"1876","Bpramos80","Florida, USA",27.6648274,-81.5157535,"Florida"
"1877","emiilyruiz","New York, USA",40.7127753,-74.0059728,"New York"
"1878","jenoisbigbaby","yas ^-^",37.3041477,-121.9788178,"California"
"1879","peterhassett","Maryland, USA",39.0457549,-76.6412712,"Maryland"
"1880","CoachBalbert","Indianapolis, IN",39.768403,-86.158068,"Indiana"
"1881","jesslag","Pittsburgh",40.4406248,-79.9958864,"Pennsylvania"
"1883","QualityInsights","DE, LA, NJ, PA, WV",40.0583238,-74.4056612,"New Jersey"
"1884","CloroxPro","Pleasanton, CA",37.6624312,-121.8746789,"California"
"1886","MJGarvida","Winterfell",39.9562296,-75.2023233,"Pennsylvania"
"1887","dianacardennas","Morgan Hill, CA",37.1305012,-121.6543901,"California"
"1889","I_Hold_MyOwn","NC- So on the East Coast",35.9065798,-79.7049996,"North Carolina"
"1891","adamwilson0869","On all 10 ",33.9760235,-84.5664807,"Georgia"
"1892","Seni99","Cleveland  Ohio",41.49932,-81.6943605,"Ohio"
"1893","dahnmaralc","Austin, TX",30.267153,-97.7430608,"Texas"
"1894","fardareismai2","Left Coast",41.9340158,-87.6610104,"Illinois"
"1895","AshtynOswald","Kansas, USA",39.011902,-98.4842465,"Kansas"
"1897","hawt_DC","Virginia x Guam",37.4315734,-78.6568942,"Virginia"
"1903","ValorieHigginbo","downtown",37.0347663,-95.6162999,"Kansas"
"1904","fish_scientist","Newark, DE",39.6837226,-75.7496572,"Delaware"
"1906","trbrad62","FlyOver, America",44.8540542,-93.2432127,"Minnesota"
"1907","CTheLily","Alexandria, VA",38.8048355,-77.0469214,"Virginia"
"1909","QueenSeniiaa","California",36.778261,-119.4179324,"California"
"1912","FrayedTorn","Madison, WI",43.0730517,-89.4012302,"Wisconsin"
"1914","devonabigail","The Land of Tea & Crumpets",29.9220919,-95.6868729,"Texas"
"1916","ZhouChauster","South Florida",27.6648274,-81.5157535,"Florida"
"1917","StephStephens","Orange County, CA",33.7174708,-117.8311428,"California"
"1918","shealynnichole5","Winter Springs, FL",28.6988853,-81.3081226,"Florida"
"1920","djcalinextdoor_","Hou.Tx <U+0001F91F><U+0001F3FE>",29.7604267,-95.3698028,"Texas"
"1921","fgc_preachaman","Hammond, IN",41.5833688,-87.5000412,"Indiana"
"1922","kimthotjin_","23|switch|nsfw",36.0558489,-115.2186205,"Nevada"
"1923","thaikone","Finland",61.92411,25.7481511,"Nevada"
"1924","AnnaEloyan1","California, USA",36.778261,-119.4179324,"California"
"1925","shelby_ham","Brookville, IN",39.4231065,-85.0127376,"Indiana"
"1926","sigurbjornl","Iceland",64.963051,-19.020835,"Indiana"
"1928","Aporter31471","Outside Fairbanks Alaska",64.8377778,-147.7163888,"Alaska"
"1929","MostWowFacts","Across the Universe ",34.0126379,-118.495155,"California"
"1930","floridamom420","Denver, CO",39.7392358,-104.990251,"Colorado"
"1931","SHlR4NAI","jihoon. / fl: ooc.",27.6648274,-81.5157535,"Florida"
"1934","tristinafortru2","On the Cross",45.3974358,-84.6313089,"Michigan"
"1936","brianraby93","North Carolina, USA",35.7595731,-79.0192997,"North Carolina"
"1938","DrewWebbYN","Ruston, LA",32.5232053,-92.637927,"Louisiana"
"1939","Sailor_Samara","Virginia",37.4315734,-78.6568942,"Virginia"
"1940","CallieAvsAgnew","Colorado",39.5500507,-105.7820674,"Colorado"
"1942","MCATDT15","Celebration, FL",28.3188815,-81.5407793,"Florida"
"1945","FLU_2Cold","Columbus, OH",39.9611755,-82.9987942,"Ohio"
"1947","lucky25","everywhere",33.7589188,-84.3640829,"Georgia"
"1949","graceeee9_","California",36.778261,-119.4179324,"California"
"1952","THV11","Little Rock, Arkansas",34.7464809,-92.2895948,"Arkansas"
"1953","halimahy","San Francisco Bay Area",37.8271784,-122.2913078,"California"
"1955","milenereis","Here, there and everywhere",40.774716,-74.694929,"New Jersey"
"1956","b4she4144","Ohio, USA",40.4172871,-82.907123,"Ohio"
"1957","shortbushawty66","New Jersey, USA",40.0583238,-74.4056612,"New Jersey"
"1958","SoMoMediaGroup","Laguna Niguel, CA",33.5236744,-117.7149438,"California"
"1959","angienellington","North Carolina, USA",35.7595731,-79.0192997,"North Carolina"
"1961","ericszyszka","Hudson Valley",41.9209018,-73.9612887,"New York"
"1963","zeemcdaniel11","Virginia",37.4315734,-78.6568942,"Virginia"
"1967","ocnaturaldoc","California ",36.778261,-119.4179324,"California"
"1969","mpatten916","Albany, NY",42.6525793,-73.7562317,"New York"
"1970","Rengganis___","SOC",38.5469991,-118.6539423,"Nevada"
"1971","notrebamcentire","Chino Hills, CA via Kansas",33.9898188,-117.7325848,"California"
"1972","SNewt104","Washington, USA",47.7510741,-120.7401385,"Washington"
"1976","Jacqueline_vB96","California, USA",36.778261,-119.4179324,"California"
"1978","ohhhcakes","Chicago, IL",41.8781136,-87.6297982,"Illinois"
"1979","CokeIceDrinker","GA",32.1656221,-82.9000751,"Georgia"
"1980","StavenhagenKate"," Adirondack Mountains ",44.1247154,-73.8693043,"New York"
"1982","bipolar9139","War zone ",41.4275803,-81.8269911,"Ohio"
"1983","BreannaPaige_x3","Louisiana",30.9842977,-91.9623327,"Louisiana"
"1984","MrsPlugg","Maryland, USA",39.0457549,-76.6412712,"Maryland"
"1985","crstye","Kapolei, HI",21.3353909,-158.0568965,"Hawaii"
"1986","hawtyuris","California, USA",36.778261,-119.4179324,"California"
"1987","flibidagibit","Roseville, CA",38.7521235,-121.2880059,"California"
"1988","Ryan_Mackenzie9","Dominion, Villa Nova",40.037056,-75.34358,"Pennsylvania"
"1992","ayeee_sha_","Somewhere",40.7428832,-84.1167726,"Ohio"
"1993","claireinspace","New York, NY",40.7127753,-74.0059728,"New York"
"1997","KURIEITAA","Los Angeles, CA",34.0522342,-118.2436849,"California"
