"","screenName","location","latitude","longitude"
"1","vScienceBites","Ohio, USA",40.4172871,-82.907123
"2","RochelleLand","Lincoln, NE",40.813616,-96.7025955
"3","muralcom","México",23.634501,-102.552784
"4","mangelhdez","Monterrey",25.6866142,-100.3161126
"5","edithfalcon","Monterrey, Nuevo León",25.6866142,-100.3161126
"6","Anabteles","Plön, Deutschland",54.1613302,10.4259498
"7","stepheneast","ireland",53.1423672,-7.6920536
"8","Globalmediamx","San Luis Potosí, México",22.1564699,-100.9855409
"9","evarin_AAN","Aberdeen, SD",45.4646985,-98.4864829
"10","sorridiFe","Federico",38.8583014,-90.0655187
"11","DrCJohns","Annapolis, MD",38.9784453,-76.4921829
"13","rightsaid1","Milky Way",42.3144108,-71.1040509
"14","hara_juun","<U+30E9><U+30A4><U+30D6><U+30CF><U+30A6><U+30B9>",41.8882283,-87.6290982
"15","RestoreHearing","London",51.5073509,-0.1277583
"16","codigosanluisi","México, San Luis Potosí",22.1564699,-100.9855409
"17","famfightflu","Arlington, VA",38.8816208,-77.0909809
"18","Kendall_Maries","Round Rock, TX",30.5082551,-97.678896
"19","STGedomex","Toluca, México",19.2826098,-99.6556653
"20","IDSE_Online","New York, NY",40.7127753,-74.0059728
"21","Sn00zel","Germany",51.165691,10.451526
"22","cessarsalas","México",23.634501,-102.552784
"23","CavaleraCorey","Mexico",23.634501,-102.552784
"24","Sparpagli","italia",41.87194,12.56738
"25","alipasha","Frankfurt on the Main, Germany",50.1109221,8.6821267
"26","philosopherstew","Ontario, CA. Ethicist Veganism",34.0633443,-117.6508876
"27","JLChavez09","Mérida, Yucatán, México",20.9673702,-89.5925857
"28","ioloraccolgo","Pavia, Lombardia",45.1847248,9.1582069
"29","Revista_Teorema","Mexico",23.634501,-102.552784
"30","ACritica","Manaus - Amazonas - Brasil",-3.1190275,-60.0217314
"32","ominismoochey","LOST IN PARADISE",28.278369,-80.6075093
"33","Abdulmalick_007","Lagos, Nigeria",6.5243793,3.3792057
"34","menphis75","Orione",42.390473,-71.0050637
"35","OCTAVIOMARIN","San Pedro Cholula, PUEBLA",19.0765772,-98.3021192
"36","MrPoyayann","<U+5927><U+962A><U+3082><U+3057><U+304F><U+306F><U+4EAC><U+90FD>",34.6937378,135.5021651
"37","TallRovingAsian","Bangkok, Thailand",13.7563309,100.5017651
"38","gaboperez3","merida  yucatan",20.9673702,-89.5925857
"39","DraMentiras","Sala común de Gryffindor.",19.2681765,-99.6468945
"40","honesthistory1","Canberra",-35.2809368,149.1300092
"41","RedaktionMK","Weinheim, Deutschland",49.544964,8.6602704
"42","NeuroDepresiva","Querétaro Arteaga, México",20.5888184,-100.3898876
"43","VDHLiveWell","Richmond, VA",37.5407246,-77.4360481
"44","bigthink","New York, NY",40.7127753,-74.0059728
"46","greenhousemd","South Carolina",33.836081,-81.1637245
"47","ASBMB","Rockville, Maryland",39.0839973,-77.1527578
"48","car0lzita","Uberlândia, Minas Gerais",-18.9127534,-48.275484
"49","_Aleyvag","Tlalnepantla, México",19.5345279,-99.1907364
"50","PlanTodaUnaVida","Quito",-0.1806532,-78.4678382
"51","DShengjuler","Paris, France",48.856614,2.3522219
"52","NoraCutcliffe","Toronto, Ontario",43.653226,-79.3831843
"53","NFIDvaccines","Bethesda, MD",38.984652,-77.0947092
"54","ElUniversal_SLP","San Luis Potosí, México",22.1564699,-100.9855409
"55","thereal_truther","Flat Earth",37.6985324,-97.441091
"56","perthisok","Perth, Western Australia",-31.9505269,115.8604572
"57","ssaludsonora","México",23.634501,-102.552784
"58","FilDelMonte","Anagni, Lazio",41.745324,13.1513636
"59","AndyVermaut","One world",40.7133444,-74.0133677
"60","slattsmachine","Ennis, Ireland",52.8474255,-8.9887384
"61","ElitensNyheder","Twitter",37.7764685,-122.4172004
"62","Salud_Ec","Ecuador",-1.831239,-78.183406
"63","CloseUp__mx","San Luis Potosí, México.",22.1564699,-100.9855409
"65","IlariaBifarini","Roma, Lazio",41.8902259,12.5065278
"67","alecerio","Assistenza Tecnica",43.7616,10.43888
"69","jkimballcook","Rochester, NY",43.1565779,-77.6088465
"71","2njerii","Longview, WA",46.1381676,-122.9381672
"73","DakiniDarkstar","California, USA",36.778261,-119.4179324
"74","OMNIHospital","Guayaquil, Ecuador",-2.1709979,-79.9223592
"75","indepe_hgo","Pachuca de Soto, Hidalgo",20.1010608,-98.7591311
"76","figuredisfondo","Naples, south Italy",40.8517983,14.26812
"77","sasa_obradovic","<U+041F><U+0430><U+0434><U+043E><U+0432><U+0430>",45.4064349,11.8767611
"78","infoitsalute","Italia",41.87194,12.56738
"79","ContextoColima","Colima",19.1222634,-104.0072348
"80","be_niceg12","México",23.634501,-102.552784
"81","sbdrysdale","London, England",51.5073509,-0.1277583
"83","caballero_26","Monterrey, Nuevo León",25.6866142,-100.3161126
"84","MassDPH","Boston, MA",42.3600825,-71.0588801
"86","rpalmeira","Hawaii, USA",19.8967662,-155.5827818
"87","kriebel_ann","Ardmore, PA",40.0067785,-75.2854622
"88","joewalter9999","St. Paul, MN",44.9537029,-93.0899578
"89","Scalabro3","Roma, Lazio",41.8902259,12.5065278
"90","rosnqueen","Tucson, AZ",32.2226066,-110.9747108
"92","SoloAcMilan1","Paderno Dugnano, Lombardia",45.5711618,9.1639813
"94","IrmaGami","Distrito Federal, México",19.4326077,-99.133208
"95","WESmith91","Manchester, England",53.4807593,-2.2426305
"96","wsbradio","Atlanta",33.7489954,-84.3879824
"97","PlinioValerio45","Manaus, Brazil",-3.1190275,-60.0217314
"98","Luca71012804","Caserta ",41.0854362,14.367553
"99","slencontacto","San Luis Potosí México",22.1564699,-100.9855409
"100","SESPublicHealth","Sydney, NSW",-33.8688197,151.2092955
"101","CriterioHidalgo","Pachuca, Hidalgo, México",20.1010608,-98.7591311
"102","niccolo_romegdr","Roma, Lazio",41.8902259,12.5065278
"103","GossipGirl_GG_x","Manhattan, NY",40.7830603,-73.9712488
"104","news_bologna","Bologna, Emilia Romagna",44.494887,11.3426162
"105","Quadratin_Edomx","Estado de México",19.4968732,-99.7232673
"106","sidneyleite_","Amazonas",-3.4168427,-65.8560646
"107","OR4MedFreedom","Oregon",43.8041334,-120.5542012
"108","SemsaManaus","Manaus, Brasil",-3.1190275,-60.0217314
"109","thewrll","Bellevue, WA",47.6101497,-122.2015159
"110","PedsMamaDoc","Minneapolis, MN",44.977753,-93.2650108
"111","poandpo","World",36.7491737,-95.972262
"113","hewittj15","Ontario, Canada",51.253775,-85.323214
"114","flavioneviano","niederbipp",47.2716158,7.6907179
"115","EDub56","San Francisco, CA",37.7749295,-122.4194155
"116","CoatzaDigital","Coatzacoalcos, Veracruz",18.1344779,-94.4589858
"117","Salud_CZ8","Guayaquil - Ecuador",-2.1709979,-79.9223592
"118","jamiefriesen","Dedmonton",42.4539038,-82.9131836
"120","Majin79","Napoli, Campania",40.8517983,14.26812
"121","EugeneBu","Wrightwood, CA",34.3608341,-117.6333884
"122","HeatherOEPR","Jackson, MS",32.2987573,-90.1848103
"123","moifra58","Sardinia, Italy",40.1208752,9.0128926
"126","emsavalles","Ciudad valles, San Luis Potosí",22.0025712,-99.0018424
"127","jeff_ak","Tokyo Japan",35.6894875,139.6917064
"128","EBmedicine","Norcross, GA",33.9412127,-84.2135309
"129","ickystijl","Arizona, USA",34.0489281,-111.0937311
"130","Influenza_404","Austria",47.516231,14.550072
"131","Mariann68224535","Lazio, Italy",41.6552418,12.989615
"132","realmrkimbell","Jeffersonville, Indiana",38.2775702,-85.7371847
"133","waitfornialler","Mac Laren’s Pub ",40.7649588,-73.9828743
"134","CDCFlu","Atlanta, GA",33.7489954,-84.3879824
"135","Alexbateman1","Cambridge",52.205337,0.121817
"136","Arthurvneto","Manaus, Brasil",-3.1190275,-60.0217314
"137","SwineFluFlash","London",51.5073509,-0.1277583
"138","SintesisHgo","Hidalgo, México",20.0910963,-98.7623874
"139","ceci_beauty","Pinole, CA",38.0043667,-122.2988587
"140","De_PoliticayMas","Tecomán, Colima",18.9173829,-103.8738031
"141","Iovehearts","Kilkenny, Ireland",52.6541454,-7.2447879
"142","XENR1","Nueva Rosita, Coahuila, México",27.9372635,-101.2174256
"143","GabiPie1","New York, USA",40.7127753,-74.0059728
"144","medevidenceblog","Salt Lake City, Utah",40.7607793,-111.8910474
"145","_eleanorx","Firenze, Toscana",43.7695604,11.2558136
"146","ejclark64","Colorado, USA",39.5500507,-105.7820674
"147","TCUPhysAstro","Texas Christian University",32.7095936,-97.3635602
"148","master_usmle_rv","Massachusetts, USA",42.4072107,-71.3824374
"149","buzzyhelps","Atlanta, GA",33.7489954,-84.3879824
"150","dfaber84","Washington, USA",47.7510741,-120.7401385
"151","Respiratory_Bio","London",51.5073509,-0.1277583
"152","Vaccine_bio","London",51.5073509,-0.1277583
"153","Piergiulio58","<U+0001F4CD>Lake Como and surroundings",46.0160486,9.2571676
"154","NursesWhoVax","New York",40.7127753,-74.0059728
"155","BiologicalB","England, United Kingdom",52.3555177,-1.1743197
"156","ARIES_SERBEL","México",23.634501,-102.552784
"157","morrisanimalinn","Morristown, NJ",40.7967667,-74.4815438
"158","Angelredblack1","Spoltore, Abruzzo",42.4414803,14.1349852
"159","erikmoldwarrior","Reno",39.5296329,-119.8138027
"160","PLWilds","Romagna",44.5967607,11.2186396
"161","ranmiomir","Niš, Srbija",43.3209022,21.8957589
"162","LorenaPerone","Napoli",36.3331041,-94.1790315
"163","prosalud_ac","Distrito Federal, México",19.4326077,-99.133208
"164","TAGEBLATTonline","Stade, Deutschland",53.5928618,9.4709494
"165","WholeHealthRx","Toronto, Ontario",43.653226,-79.3831843
"166","riccardo970","venezia",45.4408474,12.3155151
"167","anvisa_oficial","Brasília, DF, Brasil",-15.826691,-47.9218204
"168","WrittleOfficial","Chelmsford, England",51.7355868,0.4685497
"169","MDedgePediatric","Rockville, MD",39.0839973,-77.1527578
"170","AH_LKS","Liverpool, England",53.4083714,-2.9915726
"171","Infosistemacol","Colima, México",19.1222634,-104.0072348
"172","RadioR101","Italia",41.87194,12.56738
"173","EliseoBonanno","Villafranca Tirrena, Sicilia",38.235485,15.4328209
"174","ScuolePsicotera","Francavilla al Mare",42.4087027,14.2802961
"175","MDedgeFamilyMed","Rockville, MD & Parsippany, NJ",39.0839973,-77.1527578
"176","BabyBabydoll77","Napoli, Campania",40.8517983,14.26812
"177","suitS_VG","São Bernardo do Campo, Brasil",-23.6898429,-46.5648481
"178","Timrasmussen7","Danmark",56.26392,9.501785
"179","emmabaccaglio","Domodossola e dintorni",46.1160889,8.2946285
"180","samuelodusami","Lagos",6.5243793,3.3792057
"181","MitoMedicine","New York, NY",40.7127753,-74.0059728
"184","MietschieCore","Hanau, Deutschland",50.1264123,8.9283105
"185","justicafederal","Brasília, Brazil",-15.826691,-47.9218204
"186","robybrunelli","Brescia",45.5415526,10.2118019
"187","barabeke_it","Pianeta Terra",52.3680098,4.887771
"188","CleanPlanes","Los Angeles, CA",34.0522342,-118.2436849
"189","eastersealsns","Nova Scotia",44.6819866,-63.744311
"191","ageofcentraltx","Austin, Texas",30.267153,-97.7430608
"192","limesonline","Italy",41.87194,12.56738
"193","InfectDisNews","Thorofare, NJ",39.8422093,-75.1969346
"194","pulso_mx","San Luis Potosí",22.1564699,-100.9855409
"195","KiowaCoSchools","Greensburg, KS",37.6027963,-99.2926131
"196","GioiaEmiliano","Roma",36.0766378,-95.9036356
"197","akephalos6","Roma",36.0766378,-95.9036356
"198","Dominik_G_Cua","Calabria, Italy",39.3087714,16.3463791
"199","DrNetoPocoyo","Querétaro Arteaga, México",20.5888184,-100.3898876
"200","AngelErnestoIPN","Ciudad perruna.",22.891713,-109.912086
"201","FedUp5thGenAmer","New York City, NY",40.7127753,-74.0059728
"202","saludyenergia","MX",36.2332473,-95.8715409
"203","AngelsHomeoAus","Brisbane, Queensland",-27.4697707,153.0251235
"204","ElleninSaigon","Ho Chi Minh City, Vietnam",10.8230989,106.6296638
"205","HumbertoMeridaC","Tolcayuca, Hidalgo",19.9552354,-98.9201124
"206","NewsPostX","London, England",51.5073509,-0.1277583
"207","violalaviola","Roma",36.0766378,-95.9036356
"209","W4ysted1","Nunya",33.6384157,-111.8636124
"211","kayleeisyounng","Fishers, IN",39.9567548,-86.01335
"212","stabyoulots","West Virginia, USA",38.5976262,-80.4549026
"213","MsBJPeart","Charleston South Carolina USA",32.7764749,-79.9310512
"214","KODEnews","Joplin, MO",37.0842271,-94.513281
"215","KSNLocalNews","Joplin, MO",37.0842271,-94.513281
"216","rorykcd","Valencia, CA",34.456151,-118.5713823
"217","Beingchris","Pennsylvania, USA",41.2033216,-77.1945247
"218","Urbepolitica","DF",38.9147011,-77.0315403
"219","hdighn","Foothills of NC",35.744679,-81.6888248
"221","informador_JAL","Guadalajara, Jalisco",20.6596988,-103.3496092
"223","AFHSBPAGE","Falls Church, VA",38.882334,-77.1710914
"224","dillspitzen","Unterfranken, Germany",50.0780217,10.0511934
"225","wannemachaa","Montclair, NJ",40.8259007,-74.2090053
"226","turistera","Mazatlan, Sinaloa, Mexico",23.2494148,-106.4111425
"228","Daniel_San64","San Luis Potosí, México",22.1564699,-100.9855409
"229","Medicare65Inc","Wisconsin",43.7844397,-88.7878678
"230","MiAmbiente","México",23.634501,-102.552784
"231","ProMED_mail","Worldwide",36.249758,-95.266826
"232","adidigomez","Santo Domingo, DR",18.4860575,-69.9312117
"233","krxse_","Seattle, WA",47.6062095,-122.3320708
"234","AndreaEidinger","Richmond, British Columbia",49.1665898,-123.133569
"235","UHhospitals","Cleveland, Ohio",41.49932,-81.6943605
"236","ogarrio","Mexico",23.634501,-102.552784
"237","imparolitaliano","Istanbul, Türkiye",41.0082376,28.9783589
"238","DiscoverMJ","Moose Jaw, SK",50.3915811,-105.5348562
"239","cchwyo","Gillette, WY",44.2910915,-105.5022205
"240","DuneSlaya","Hell",42.43472,-83.985
"242","mhmdhmzh","Jakarta",-6.2087634,106.845599
"243","Salud_CZ9","Ecuador",-1.831239,-78.183406
"244","mario__lavezzi","I am European",54.5259614,15.2551187
"246","esthela85231630","McAllen, TX",26.2034071,-98.2300124
"247","VioleCrown","Infinity and beyond",35.0531875,-81.9733062
"248","brunoballardini","Rome",41.9027835,12.4963655
"249","DFDYR98","Roma e dintorni",42.122424,12.592953
"250","SCCHealth","St. Charles, MO",38.7881062,-90.4974359
"252","LipicaShah","New York City",40.7127753,-74.0059728
"253","fabideangelis","Palermo, Sicilia",38.11569,13.3614868
"254","lrj4th","South East",37.0358272,-95.6276367
"255","BrianSheehy","Methuen, MA",42.7262016,-71.1908924
"256","RainbowJaden10","København, Danmark",55.6760968,12.5683372
"257","guidoparchi","Italia",41.87194,12.56738
"258","EdReynaud27","Lisbon, Portugal",38.7222524,-9.1393366
"259","nonsiamodiqui","Verona / Milano / Manchester",45.4383842,10.9916215
"260","erinrauert","Humboldt, Saskatchewan",52.2019792,-105.1228655
"261","SimoneDonei","Beijing, China / Moena, Italy",39.9041999,116.4073963
"262","Congreso_CdMex","México, Distrito Federal",19.4326077,-99.133208
"263","MARIKACASALE1","Roma",36.0766378,-95.9036356
"264","ingridmmn","Costa Rica",9.748917,-83.753428
"266","history2wheeler","Sydney",-33.8688197,151.2092955
"267","DrSachaSB","Sydney, New South Wales",-33.8688197,151.2092955
"268","TendenciasRSS","Colima",19.1222634,-104.0072348
"269","CavalierInc","Norfolk, Virginia",36.8507689,-76.2858726
"270","vadenuezmzo","Manzanillo, Colima",19.1138094,-104.3384616
"272","Altavoznoticias","Los Mochis, Sinaloa, Mèxico",25.7904657,-108.985882
"273","EMAM_EP_MACHALA","Machala - El Oro - Ecuador",-3.2581112,-79.9553924
"274","ale95italy","Scandicci",43.7307033,11.1504111
"275","SigloDurango","Durango, México",24.5592665,-104.6587821
"276","DHSWI","Wisconsin, USA",43.7844397,-88.7878678
"277","pierocalaciura","Palermo, Sicily",38.11569,13.3614868
"278","AztecaNoticias","México",23.634501,-102.552784
"279","torreon","Torreón, Coahuila de Zaragoza",25.5428443,-103.4067861
"280","ktperezb","palmira",3.5379718,-76.2971657
"282","OffshoreCos","Global",37.0329949,-95.6400855
"283","trespm","Toluca, Estado de México.",19.2826098,-99.6556653
"284","MADMAX2B2","Pueblo, CO",38.2544472,-104.6091409
"285","Lobenz1","Murrieta, CA",33.5539143,-117.2139232
"286","wadebaksh","Toronto",43.653226,-79.3831843
"287","6th_gawd","Abuja, Nigeria",9.0764785,7.398574
"288","Niza_xiva","Santa María Atzompa, Oaxaca",17.0916983,-96.7681366
"289","Microburst0","Tallinn, Estonia",59.4369608,24.7535747
"290","Iretnac","Verona, Veneto",45.4383842,10.9916215
"292","pressrd","Republica Dominicana",18.735693,-70.162651
"293","egreenst2","Fargo, ND",46.8771863,-96.7898034
"294","Aurora34437196","Reggio nell'Emilia",44.6989932,10.6296859
"295","AshNichole14","Nebraska",41.4925374,-99.9018131
"296","sagrassick","Kildare, Ireland",53.1589342,-6.9095683
"297","aeliase","Monterrey, N.L., México",25.6866142,-100.3161126
"298","alexpletch4real","Your Mom's House",39.7367329,-104.9794787
"299","EvangeliciBG","Bergamo - via Falcone, 1",45.679874,9.658827
"300","FluTrackers","International Website",34.749056,-92.2806358
"301","SlimDeGea","Stretford End",43.0461022,-77.4695373
"302","uniontribunees","San Diego, CA",32.715738,-117.1610838
"303","ghostofashy","broken home ",33.2369797,-96.6864933
"304","gyalbender","Gaza",31.3546763,34.3088255
"305","NoticiaTuxtepec","Tuxtepec, Oaxaca",18.0809028,-96.1420947
"306","nvinoticiasoax","Oaxaca, Mexico",17.0731842,-96.7265889
"307","istmo_noticias","Salina Cruz, México ",16.1842839,-95.2087625
"308","MilenioMty","Monterrey, Nuevo León",25.6866142,-100.3161126
"309","Lynn_Nothegger","Germany",51.165691,10.451526
"310","burde","Firenze, italy",43.7695604,11.2558136
"311","denlillekemiker","København, Danmark",55.6760968,12.5683372
"312","CentreCRIP","Canada",56.130366,-106.346771
"313","SagradoSanLuis","San Luis Potosí, México",22.1564699,-100.9855409
"314","irving_jasiel","Atlacomulco, México",19.7975581,-99.8766825
"315","IDAC_RD","Santo Domingo",18.4860575,-69.9312117
"316","metaanto","Milano",39.0825197,-94.5823061
"317","Chuka_I","Washington, DC",38.9071923,-77.0368707
"318","sillern","Copenhagen",55.6760968,12.5683372
"319","_nsgr","Berkeley, CA",37.8715926,-122.272747
"320","TheSerenyna","Genoa, Liguria",44.4056499,8.946256
"321","TOILucknow","Lucknow",26.8466937,80.946166
"322","KCMOHealthDept","Kansas City, Mo.",39.0997265,-94.5785667
"323","EngevikJoe","Hjørring, Nordjylland, Danmark",57.4567788,9.9957635
"324","uwmnewsroom","Seattle, Wash.",47.6062095,-122.3320708
"325","GuidelineCent","Lake Mary, FL",28.7588833,-81.3178446
"326","tonydaopharmd","Garden Grove, CA",33.7742692,-117.9379952
"327","Hugoggrojas","On the net! (:",40.290663,-76.56835
"328","sarahmnx29","Rome, Italy",41.9027835,12.4963655
"329","agostinomela","Cagliari",39.2238411,9.1216613
"330","vibeug","Guayaquil, Ecuador",-2.1709979,-79.9223592
"331","SuzanneRosenbak","Denmark",56.26392,9.501785
"332","CrinklyConnor96","Kansas, USA",39.011902,-98.4842465
"333","videkma","Magyarország",47.162494,19.5033041
"334","kathyfergusonar","Edwards, CO",39.644986,-106.5942
"335","Clarisamedinasg","Culiacán, Sinaloa",24.8090649,-107.3940117
"336","LizPreedy","Europe",54.5259614,15.2551187
"337","JillGrimesMD","Austin, TX",30.267153,-97.7430608
"338","jussitussi1","Wien",48.2081743,16.3738189
"339","thiagovarquez","Vancouver, AMV<U+2640>",49.2827291,-123.1207375
"340","UdeGuayaquil","Guayaquil, Ecuador",-2.1709979,-79.9223592
"341","NVeracruzanas","Xalapa",19.5437751,-96.9101806
"342","BisenSShweta","AFK",47.9631475,-122.2090561
"343","newshidalgo","México",23.634501,-102.552784
"344","FranciNiccheri","Firenze, Toscana",43.7695604,11.2558136
"345","Tinuccella","Naples, Campania",40.8517983,14.26812
"346","annagollins","camp half-bloods",33.9431463,-84.2152691
"347","PAOLOCARLESI","Firenze",43.7695604,11.2558136
"348","neptunevalley84","Roma, Lazio",41.8902259,12.5065278
"349","StJudeResearch","Memphis, Tenn.",35.1495343,-90.0489801
"350","Off_Mariano","Bari, Puglia",41.1171432,16.8718715
"351","annaflalb","Napoli - Italy",40.8517983,14.26812
"352","Paolo3403","Pavia, Lombardia",45.1847248,9.1582069
"353","Alessandra_Arpi","• Genova",35.609611,-82.568876
"354","LaVozAcatlan","Acatlán, Hidalgo",20.1453958,-98.4410429
"355","doc_eva","CIUDAD DE MÉXICO.",19.4326077,-99.133208
"356","Dario_Accolla","Roma",36.0766378,-95.9036356
"357","ProdeneGmbH","Germany",51.165691,10.451526
"358","lorenzop861","Roma, Lazio",41.8902259,12.5065278
"359","MCBazacoPhD","Washington, DC",38.9071923,-77.0368707
"360","OhhhLulu","Orillia, Ontario",44.6082465,-79.4196783
"362","meta_physik","Wien",48.2081743,16.3738189
"363","Partiderode10","Guadalajara, Jalisco",20.6596988,-103.3496092
"364","LeoUzych","Wallingford, PA",39.8932884,-75.3630796
"365","marcotamboo","Bologna",44.494887,11.3426162
"366","olaajani","New Lagos",6.6024143,3.4161624
"367","ximena_mgc","Monterrey, Nuevo León",25.6866142,-100.3161126
"368","Importantnotimp","Earth",37.2321077,-95.7243335
"369","drsadot","Monterrey Nuevo León México",25.6866142,-100.3161126
"370","DAZheute","Berlin / Stuttgart",52.5345959,13.4256578
"371","Angele_Benard35","Paris, France",48.856614,2.3522219
"372","RNRoosevelt","Farmington, MO",37.7808846,-90.4217895
"373","DelthiaRicks","New York",40.7127753,-74.0059728
"374","ajhuna_matata","Tennessee, USA",35.5174913,-86.5804473
"375","longagnani","Modena, Italia",44.647128,10.9252269
"376","tworavensbrew","Newark, DE",39.6837226,-75.7496572
"379","MKuntz_67","Milano",39.0825197,-94.5823061
"380","puntoporpuntomx","Pachuca, Hidalgo, México",20.1010608,-98.7591311
"381","ReporterManaos","Amazonas, Brazil",-3.4168427,-65.8560646
"382","TomGeorgeRacing","Slad, Gloucestershire",51.765284,-2.185731
"383","Andrew_Grey82","Roma",36.0766378,-95.9036356
"384","N8veBiz","Billings, MT 59101",45.7832856,-108.5006904
"385","CurarseEnSalud","Mexico D.F.",19.4326077,-99.133208
"386","MedicalCollege","Milwaukee, Wisconsin",43.0389025,-87.9064736
"387","lajornadazac","Zacatecas, Zacatecas.",22.7641984,-102.5865558
"388","thisgratefulmam","Minnesota, USA",46.729553,-94.6858998
"389","hidalgo_hector","GUAYAQUIL",-2.1709979,-79.9223592
"390","DoubleM07_","United Kingdom",55.378051,-3.435973
"391","MDBoxapp","Austin, TX",30.267153,-97.7430608
"392","Gnegnyna","Brianza, Lombardia",45.623599,9.2588015
"393","lxztlr","Karlsruhe, Germany",49.0068901,8.4036527
"394","EvgrnNutrition","Eugene, Oregon",44.0520691,-123.0867536
"395","D_Unit1991","München, Bayern / Ražanac, HR",48.1351253,11.5819805
"396","TuSNHD","Las Vegas, Nevada",36.1699412,-115.1398296
"397","influenza_dk","Denmark",56.26392,9.501785
"398","mainpost","Würzburg • Germany",49.7913044,9.9533548
"399","CorriereAdriati","Il Quotidiano delle Marche",43.5058744,12.989615
"403","_steve3_","Highlands Ranch, CO",39.5480789,-104.9739333
"405","spagliarini79","Prato, Toscana, Italia",43.8777049,11.102228
"407","MagsTweets2","First State",36.933645,-94.8677189
"408","IDinChildren","Thorofare, NJ",39.8422093,-75.1969346
"409","Zombifiedspade","South Dakota, USA",43.9695148,-99.9018131
"410","BeckyELangdon","Flyover country",36.8964067,-87.9587538
"411","eldrave20","Seattle, WA",47.6062095,-122.3320708
"412","svmmin","Seoul, Republic of Korea",37.566535,126.9779692
"413","NotisistemaJal","Guadalajara",20.6596988,-103.3496092
"414","NewsGDL","Guadalajara, México.",20.6596988,-103.3496092
"415","Giovaguerrato","Bologna, Emilia Romagna",44.494887,11.3426162
"416","EPC_Bomberos_Mg","Milagro, Ecuador",-2.1387682,-79.5940544
"417","Paolashap","Taranto ",40.4643606,17.2470303
"419","AlexRevenant","Bari, Apulia",41.1171432,16.8718715
"421","ShillingCurate","Northumberland, England",55.2082542,-2.0784138
"422","BenjaminHCCarr","New York",40.7127753,-74.0059728
"424","stebaraz","Milan, Lombardy",45.4642035,9.189982
"425","kaitlinefree","Ohio, USA",40.4172871,-82.907123
"426","icametoslaybtch","Napoli, Campania",40.8517983,14.26812
"427","LogicIsGone","Seattle, WA",47.6062095,-122.3320708
"428","hardydann","Perdida en Toluca",19.3022105,-99.6804192
"430","IrishSmuggling","Waterford, Ireland",52.2593197,-7.1100702
"431","CANAL44TV","Guadalajara, Jalisco",20.6596988,-103.3496092
"432","forumJuventus","Worldwide",36.249758,-95.266826
"433","jlaakso","Helsinki, Finland",60.1698557,24.9383791
"434","JosueLarMor","Cuernavaca, Morelos",18.9242095,-99.2215659
"435","SeaBlu18","Naples, Campania",40.8517983,14.26812
"437","TheIrishField","Ireland",53.1423672,-7.6920536
"438","NotiGDL","Guadalajara, Mexico",20.6596988,-103.3496092
"439","ISMEL_Torino","Turin, Piedmont",45.0703393,7.686864
"440","Michele1439","River Falls, WI",44.8613563,-92.6238082
"441","Cymicaldane","København, Danmark",55.6760968,12.5683372
"442","_heresallie","Italia",41.87194,12.56738
"443","OPSOMS_Col","Bogotá",4.7109886,-74.072092
"444","philosofarda","Indonesia",-0.789275,113.921327
"445","ErasmoPartenope","Basilicata, Italia",40.6430766,15.9699878
"446","tsilas","Montana, USA",46.8796822,-110.3625658
"447","FAOCotedIvoire","Abidjan, Côte d'Ivoire",5.3599517,-4.0082563
"448","NikkiTheRealist","Reno, NV",39.5296329,-119.8138027
"449","Greengilly9","Minot, ND",48.2329668,-101.2922906
"451","shige_magara","<U+6D45><U+8349>&<U+6A2A><U+6D5C>",35.7124805,139.7923907
"452","noticiashouston","Houston",29.7604267,-95.3698028
"453","romeerizwan","Boston, MA",42.3600825,-71.0588801
"454","juaneldeljarro","Jardin de San Fco y @NOTICIEROS7 ",37.7749295,-122.4194155
"455","RevistaGM5","México.",23.634501,-102.552784
"456","Lloydie_D","South East St Mary",18.3092711,-76.964306
"457","DrTanyaRossi","Guelph, Ontario",43.5448048,-80.2481666
"458","AlDiaNoticiasSL","San Luis Potosí, México",22.1564699,-100.9855409
"459","kaseann_99","SIUE",38.793103,-89.995654
"461","SopianaeNet","Pécs • Fünfkirchen",46.0727345,18.232266
"462","Menikhusada1","Cimahi Utara, Indonesia",-6.8633153,107.5564326
"463","Mobile_AL_33601","Mobile, AL",30.6953657,-88.0398912
"465","Boulder_80301","Boulder, CO",40.0149856,-105.2705456
"467","SmallRedOne","Taff's Well, Wales",51.545383,-3.27196
"468","werthermede5","Sassuolo, Emilia Romagna",44.54433,10.7847741
"469","kxly4news","Spokane, Washington",47.6587802,-117.4260465
"470","VertigoPolitico","México, Distrito Federal",19.4326077,-99.133208
"471","Aquivaeluser","La Port de Entrad",34.0522342,-118.2436849
"472","Portal_Politico","México",23.634501,-102.552784
"473","darioarroba","Madrid, Comunidad de Madrid",40.4167754,-3.7037902
"474","pjriverag","Tampico, Tamaulipas",22.2331041,-97.861099
"475","SigloCoahuila","Coahuila de Zaragoza, México",27.058676,-101.7068294
"476","ProMED_PORT","mundial",34.1465266,-118.0008281
"477","_Phelan_","Budapest, Hungary",47.497912,19.040235
"478","karencioux","México D. F. ",19.4326077,-99.133208
"479","ReneeKaeAdams","OH USA",40.4172871,-82.907123
"480","somosarandas","Arandas,Jalisco,Mexico",20.7055616,-102.3469498
"481","LaCronicaDeHoy","México",23.634501,-102.552784
"482","CasoPaloma","Moscow, ID",46.7323875,-117.000165
"483","Selleman","B<U+0001F48B>nn, Nordrhein-Westfalen",51.4332367,7.6615938
"484","MYKIDSDOCTOR","GEORGIA",32.1656221,-82.9000751
"485","GioElCogo","Friuli",46.2259177,13.1033646
"487","LondonDrugs","Richmond, BC",49.1665898,-123.133569
"489","ORLXalapa","Xalapa, Veracruz",19.5437751,-96.9101806
"490","ChickeringJr","Harlem, NYC",40.8115504,-73.9464769
"491","AndreynaGallo","Venezuela",6.42375,-66.58973
"492","carlopagliani","Reggio nell'Emilia",44.6989932,10.6296859
"493","889Noticias","Ciudad de México",19.4326077,-99.133208
"495","chynsukies","hareli: 080714 <U+2661> / @wonhized <U+2661>",33.1524273,-96.8677895
"496","TheOnlyNiaNaomi","Virginia, USA",37.4315734,-78.6568942
"497","Jorge_Luna01","Saltillo, Coahuila. México ",25.4383234,-100.973678
"498","shcherbatskayas","hell",42.43472,-83.985
"499","elbotiquinmx","Mexico",23.634501,-102.552784
"500","Deloused869","The Milky Way",34.0550364,-118.3903292
"501","Salud_CZ4","Manabí - Santo Domingo",-1.0543434,-80.452644
"503","heatherswifty","Ithaca, New York",42.4439614,-76.5018807
"504","AlePinni","Italy",41.87194,12.56738
"506","mogbolarhan","Lagos, Nigeria",6.5243793,3.3792057
"508","AZannaman","Austria",47.516231,14.550072
"509","CMHCommunity","Astoria, OR",46.1878841,-123.8312534
"510","DiisMtz","Toronto",43.653226,-79.3831843
"511","JoeSkurz_KMOT","Minot, ND",48.2329668,-101.2922906
"512","Siete24mx","México",23.634501,-102.552784
"513","freecycleamanda","London, UK",51.5073509,-0.1277583
"514","emanuelmendoza1","CDMX",19.4326077,-99.133208
"515","libertylives277","California, USA",36.778261,-119.4179324
"516","_UmbraWitch","Rovato, Lombardia",45.5306402,10.0171485
"517","iPractitioner","Portland, ME",43.6590993,-70.2568189
"518","gabyrojasor","México, D.F. ",19.4326077,-99.133208
"519","TelemarNoticias","Campeche Tel: 9818114701",19.8301251,-90.5349087
"520","noticiascanal10","Cancún Centro, Benito Juárez",21.161908,-86.8515279
"521","KaneCoHealth","Aurora, Illinois",41.7605849,-88.3200715
"522","Tucanal10","Cancún Quintana Roo",21.161908,-86.8515279
"524","CheekyRaveness","Birdlandia, Iowa.",41.8780025,-93.097702
"525","IsItTJ","WA",47.7510741,-120.7401385
"526","MinnieSkeptic","Minneapolis, MN",44.977753,-93.2650108
"527","AkWeeklyNews","New Zealand",-40.900557,174.885971
"528","Prokrastinateu1","Hansaplatz",53.5544675,10.0115752
"529","Spanishcountry","Eaubonne, 95, France",48.992128,2.2779189
"530","MyHealthyTours","Venezuela",6.42375,-66.58973
"531","grupomanos","Venezuela",6.42375,-66.58973
"532","selodicitu","Milano, Lombardia",45.4642035,9.189982
"533","NicoleFalconM","Querétaro Arteaga, México",20.5888184,-100.3898876
"534","repordigital","Mexico DF",19.4326077,-99.133208
"535","EFEMexico","Mexico",23.634501,-102.552784
"536","Gino25482757","Veneto, Italy",45.4414662,12.3152595
"537","aelledesign","Ostuni, Apulia",40.7295235,17.5779979
"538","leslierachelle","Portland, OR",45.5122308,-122.6587185
"539","liveunict","Catania",37.5078772,15.0830304
"540","barrera_gonza","CdMX",19.4326077,-99.133208
"541","letteratur_arte","Roma",36.0766378,-95.9036356
"542","suzie_x15","New York, USA",40.7127753,-74.0059728
"543","SoResearchNews","Ala., Md., N.C., Ga.,Texas",35.7595731,-79.0192997
"544","AUndici","Rome",41.9027835,12.4963655
"545","DrBGellin","Washington, DC",38.9071923,-77.0368707
"547","EarlyReport","Chicago",41.8781136,-87.6297982
"548","elreportero","Mexico",23.634501,-102.552784
"549","PURECompRx","Myrtle Beach, SC",33.6890603,-78.8866943
"550","Fhumura","Rwanda",-1.940278,29.873888
"551","forosdesalud","Mexico",23.634501,-102.552784
"552","FConfiablesNews","Global",37.0329949,-95.6400855
"553","bichoscientist","México",23.634501,-102.552784
"554","KFYRTV","Bismarck, North Dakota",46.8083268,-100.7837392
"555","aaronomas","Mexicali, Baja California",32.6245389,-115.4522623
"556","bakalice","Italy",41.87194,12.56738
"557","nolwazi365","Johannesburg, South Africa",-26.2041028,28.0473051
"558","ConcentradoNoti","Colima, México",19.1222634,-104.0072348
"559","Carmen_Hern","Mexico City",19.4326077,-99.133208
"560","lj_tan","Chicago, IL",41.8781136,-87.6297982
"561","PokzBo","Tlalpan, Distrito Federal",19.2790911,-99.2114234
"562","davideb1968","Bologna, Emilia Romagna",44.494887,11.3426162
"563","CPDENP","Soledad de Graciano Sánchez",22.1807042,-100.9417767
"564","Paradox_GameNet","Planet Earth",41.909611,-87.771964
"565","censia_salud","Ciudad de México",19.4326077,-99.133208
"566","LiderQR","Mexico",23.634501,-102.552784
"567","doctormacias","Leon, Mexico",21.1250077,-101.6859605
"568","SanofiUS","Bridgewater, NJ",40.5939636,-74.6049061
"569","jachedeleo","Foggia, Puglia",41.4621984,15.5446302
"570","Linds_E_Parker","Sioux City, Iowa",42.4963416,-96.4049408
"571","sumedico","México D.F.",19.4326077,-99.133208
"572","OSUEMEdu","Columbus, OH",39.9611755,-82.9987942
"573","nickwohlge","Memphis, TN",35.1495343,-90.0489801
"574","AleRodriguez5","Paris, France",48.856614,2.3522219
"575","FVilardo1979","Calabria, Italia",39.3087714,16.3463791
"576","MLHealthUnit","London and Middlesex County",42.9849233,-81.2452768
"577","nottinghilI","Milano",39.0825197,-94.5823061
"578","punkt_emm","Um die Ecke",46.8904992,7.4971122
"579","AgentFoo","Wankendorf, Deutschland",54.1126444,10.207897
"580","Stefano0323","Milano, Lombardia",45.4642035,9.189982
"581","apemke","Florida, USA",27.6648274,-81.5157535
"582","killa_kalle","Rostock",54.0924406,12.0991466
"583","ioio57134098","Italia",41.87194,12.56738
"584","JulioCesar_Ruiz","PERÚ",-9.189967,-75.015152
"586","RJtheFireDog","LA and New York City",40.7762676,-73.977617
"587","mathematista","Memphis, TN",35.1495343,-90.0489801
"588","RossJonesUK","Portishead, Bristol",51.485155,-2.767948
"589","TheInfluenzers","Washington, DC",38.9071923,-77.0368707
"590","sabinvaccine","Washington, DC",38.9071923,-77.0368707
"591","Fundacao_Gratas","São Luís-MA/Toronto-ON",-2.5391099,-44.2829046
"592","AAAHande","Istanbul",41.0082376,28.9783589
"594","Fraserhealth","Surrey, British Columbia",49.1913466,-122.8490125
"595","AlrightNowHQ","Across the Universe",34.0126379,-118.495155
"596","hesvnlight_","Los Angeles, CA",34.0522342,-118.2436849
"597","thesoul77","National City, CA.",32.6781085,-117.0991967
"598","w0rstchick","20.06.2014 München ",48.1351253,11.5819805
"599","SeemaJJIC","New York, New Jersey",40.7878788,-74.0143064
"600","WCSNewsroom","Global",37.0329949,-95.6400855
"601","MoioIsabella","Milano... O quasi ",45.4642035,9.189982
"602","mercola","Chicago, IL",41.8781136,-87.6297982
"603","ElDespertarQRoo","Quintana Roo, México",19.1817393,-88.4791376
"604","Alexanderspie","City of Glass & Degrassi High",36.1569627,-95.9751989
"605","cbnamazonia","Brasil",-14.235004,-51.92528
"606","Itz_Realone","Planet Earth",41.909611,-87.771964
"607","cuoredivetro_","Mangiando pizza.",40.8083904,-74.4632691
"608","PawsU","Central Wisconsin",44.784201,-89.67268
"610","ArefaSeleho","Johannesburg",-26.2041028,28.0473051
"611","AmeshAA","Pittsburgh, Baltimore, NYC",39.2903848,-76.6121893
"613","Jess_DiPalma","north tonawanda",43.038668,-78.8642033
"614","TSystem","Dallas, Texas",32.7766642,-96.7969879
"615","salliegoetsch","Oakley, CA (California Delta)",38.0062966,-121.7525413
"617","portalzacarias","Manaus (AM) - Brasil",-3.1190275,-60.0217314
"618","louriosp","Mexico",23.634501,-102.552784
"619","classicsoundrad","Los Mochis, Sinaloa. MÉXICO.",25.7904657,-108.985882
"620","fynralyl","DFW area",32.7078751,-96.9209135
"621","psynister","Waxahachie, Texas",32.3865312,-96.8483311
"622","arynpeters","Decatur, IL",39.8403147,-88.9548001
"623","CiudadTV212","Miguel Hidalgo",19.4306575,-99.2083953
"624","PEMTweets","Cincinnati, OH",39.1031182,-84.5120196
"625","beasonsaver","Grand Blanc, MI",42.9275277,-83.6299518
"626","rosalesarballo","Culiacán, Sinaloa",24.8090649,-107.3940117
"627","EsqJeanne","Boca Raton, FL",26.3683064,-80.1289321
"628","TlalpanAl","Tlalpan, Distrito Federal",19.2790911,-99.2114234
"629","GilbertoMoretti","Antica Rampa Libreria Caffè",45.0944513,11.4897909
"630","kporterEHS","Huntington Beach, CA",33.6594835,-117.9988026
"631","AgroMonarca1","Zapopan, Jalisco",20.6719563,-103.416501
"632","aimar17582","Genova, Liguria <U+2693>",44.4056499,8.946256
"633","nicolaferrini","Roma",36.0766378,-95.9036356
"634","WhiteLionMXX","Mexico City",19.4326077,-99.133208
"635","denissechaconn","Portland, OR",45.5122308,-122.6587185
"636","MeganoticiasTEP","Tepic, Nayarit",21.5041651,-104.8945887
"637","ImmunizeCOKids","Colorado",39.5500507,-105.7820674
"639","VanariaDomenico","Catania, Sicily",37.5078772,15.0830304
"640","AwzRocks","Neosho, MO",36.8689554,-94.367996
"641","zitella_anna","milano,italy",45.4642035,9.189982
"642","QuirinoOC","Culiacán, Sinaloa",24.8090649,-107.3940117
"644","demitrariel","Kokomo",40.486427,-86.1336033
"645","ScroochMagooch","Valparaiso, IN",41.4730948,-87.0611412
"646","bcbssc","South Carolina, USA",33.836081,-81.1637245
"647","SITEURJAL","Guadalajara, Jalisco",20.6596988,-103.3496092
"648","TheWCS","Worldwide",36.249758,-95.266826
"649","HVWilliamsburg","Lincoln, NE",40.813616,-96.7025955
"650","Tiger_Medical","Irvington, NJ",40.7263249,-74.2286435
"651","AntonioHau6","Tepic, Nayarit",21.5041651,-104.8945887
"652","MANA_Clinics","Northwest Arkansas",36.0148605,-94.2333355
"654","rcmedellin","Monterrey, México.",25.6866142,-100.3161126
"655","ssaslp","San Luis Potosí",22.1564699,-100.9855409
"656","hannahmartinn","Ottawa, Ontario",45.4215296,-75.6971931
"658","LaskuNikolin","Novara, Piemonte",45.44693,8.6221612
"659","ItzelElizalde4","Mexico",23.634501,-102.552784
"660","UNIBECR","San José, Costa Rica",9.9280694,-84.0907246
"661","CARLOSARRE12","culiacan sinaloa",24.8090649,-107.3940117
"663","TabataNM","Naucalpan de Juárez, México",19.4630841,-99.245302
"664","SecEducacionJal","Jalisco",20.6595382,-103.3494376
"665","MiryanaBarbieri","Varese",45.8205989,8.8250576
"666","finding_naema","Kenya",-0.023559,37.906193
"667","Smcd613","Buffalo, NY",42.8864468,-78.8783689
"668","AlfaDiarioMx","Toluca, México",19.2826098,-99.6556653
"669","LucaFranzon","Ferrara",40.7190764,-73.9970864
"670","Ariiannatedesco","Lyon, France",45.764043,4.835659
"671","CTPharmacists","Rocky Hill, CT",41.6572525,-72.6655757
"672","VolkerL5","Würzburg, Germany",49.7913044,9.9533548
"674","madejaaaa","Urbandale, IA",41.6266555,-93.7121656
"675","CCPetEmporium","1553 KING ST ST. JACOBS ON ",43.545907,-80.5530031
"676","NauticalMiles33","Michigan",44.3148443,-85.6023643
"677","TheBookNerdess9","London, England",51.5073509,-0.1277583
"679","EspejoRevista","Culiacán, Sinaloa, México.",24.8090649,-107.3940117
"680","steveathanas","Massachusetts, USA",42.4072107,-71.3824374
"681","jenmariewallace","Chicago, IL",41.8781136,-87.6297982
"682","experientiaante","Napoli, Mediterraneo",40.8410462,14.250598
"683","DarthMother2000","Polska",51.919438,19.145136
"684","SeguroPopularHg","Hidalgo, México",20.0910963,-98.7623874
"685","ImmunizedotCa","Canada",56.130366,-106.346771
"686","SE_Mamelund","Skedsmo, Norge",59.9929184,11.0421988
"687","Expression_Hgo","México",23.634501,-102.552784
"688","iAppleMustache","Lalalaland",26.3496347,-80.2289571
"689","RandoxClinical","UK",55.378051,-3.435973
"690","quierotvags","Aguascalientes",21.8852562,-102.2915677
"691","LaneRMC","Zachary, LA",30.6485191,-91.1564961
"692","KPkiddoc","Vacaville, CA",38.3565773,-121.9877444
"693","microRNApro","Northern Georgia",33.5561144,-84.2645382
"694","immi_ruah70","Verona",45.4383842,10.9916215
"695","ujszo","Pozsony",48.1485965,17.1077478
"696","rilakkumarrr","Plano, TX",33.0198431,-96.6988856
"697","MedicineHatNews","Medicine Hat, AB, Canada",50.0405486,-110.6764257
"698","OtherVaccines","New South Wales, Australia",-31.2532183,146.921099
"699","Ben_Kaplan","New York, NY",40.7127753,-74.0059728
"700","aetiology","Kent, Ohio",41.1536674,-81.3578859
"701","marieAn72486017","Louisiana, USA",30.9842977,-91.9623327
"702","7emma1","Blanchester, OH",39.2931174,-83.9888205
"703","debg7089","Nebraska",41.4925374,-99.9018131
"705","Anapatf","Samborondon",-1.9606263,-79.727151
"706","leftarmisme","The Red Room",38.9843281,-94.6709557
"707","sarah_martin_19","Knoxville, IA",41.320343,-93.09967
"708","Medimobile1","Australia",-25.274398,133.775136
"709","scoby1978","Ireland",53.1423672,-7.6920536
"710","RadioRebelWeb","roma",36.0766378,-95.9036356
"711","k_mbethe","South Africa",-30.559482,22.937506
"712","angelnolimits","Italy",41.87194,12.56738
"714","NeumologiaPeru","Instituto Neumología Peruana",-12.101227,-76.970986
"715","SophApe","Berks County, PA, USA",40.3451566,-75.9927652
"716","artofperson","South Florida",27.6648274,-81.5157535
"717","AllyGarbs","Nova Scotia",44.6819866,-63.744311
"718","NdTijuana","Tijuana, Baja California",32.5149469,-117.0382471
"719","Salud_CZ6","Ecuador",-1.831239,-78.183406
"720","HHCCAzogues","Azogues, Ecuador",-2.7409471,-78.8488227
"721","tfx47","My Space",40.7070471,-73.9334713
"722","AshleyHommerTV","Wausau, WI",44.9591352,-89.6301221
"723","allypeterswaow","Wausau, WI",44.9591352,-89.6301221
"724","titaredondel","Guaynabo, Puerto Rico",18.3615548,-66.1110682
"725","EccentricFlower","Greater Bostonia",42.3591393,-71.0544889
"727","detaeiled","oop",43.9147995,-80.122931
"728","DrJenChen4kids","San Diego, CA",32.715738,-117.1610838
"729","kreest_uh","Philadelphia, PA",39.9525839,-75.1652215
"730","Flashgordonv","Rural New Zealand",-41.2877674,174.775666
"731","Maggie73448062","Victoria, Australia melbourne",-37.8136276,144.9630576
"733","vincealbi84","Basilicata, Italy",40.6430766,15.9699878
"734","VirologyComics","Matera <U+0001F1EE><U+0001F1F9><U+0001F501><U+0001F1E7><U+0001F1EA> Brussels ",40.666379,16.6043199
"735","ssduwu","stay kingdom",38.9434574,-91.9356985
"736","itsmepaaty","México | Dublín <U+0001F4CD>",23.634501,-102.552784
"737","ooscarroman","san nicolas de los garza N.L",25.7493469,-100.2868973
"738","garethpretty","Whyteleafe, Surrey, UK",51.3017577,-0.079251
"739","TakeThatCDC","Atlanta, GA",33.7489954,-84.3879824
"740","margierinee","Pittsburgh, PA",40.4406248,-79.9958864
"741","Faaraa77","Wonderland",43.8430176,-79.5394625
"742","Vittorino1806","Italia",41.87194,12.56738
"744","idont_know0290","Germany",51.165691,10.451526
"745","lenaweecounty","Michigan, USA",44.3148443,-85.6023643
"746","yodelhealth","Frisco, CO",39.5744309,-106.0975203
"747","mikedk","Copenhagen, Denmark",55.6760968,12.5683372
"748","cianaglima","Uberlândia, Brasil",-18.9127534,-48.275484
"749","Pau_Vega13","Mirando al mar",41.3748831,2.1832329
"750","t_e_knight","Detroit, MI",42.331427,-83.0457538
"751","saludjalisco","Guadalajara, Jalisco",20.6596988,-103.3496092
"752","univadisUK","United Kingdom",55.378051,-3.435973
"754","marciacasantos","Brasil",-14.235004,-51.92528
"756","AHS_CentralZone","Central Alberta",53.9332706,-116.5765035
"757","lea_chiara","Bielefeld, Deutschland",52.0302285,8.5324708
"758","annodavaarte","Catania, Sicilia",37.5078772,15.0830304
"759","CSISpecialty","Sanford, FL",28.8028612,-81.269453
"760","HHS_ASH","Washington, DC",38.9071923,-77.0368707
"761","jornalfloripa","Florianópolis, Santa Catarina",-27.5948698,-48.5482195
"762","mamalyssa17","Urbandale, IA",41.6266555,-93.7121656
"763","Hireksk","Szlovákia",48.669026,19.699024
"764","MIES_Zona2","Tena - Ecuador",-0.9962972,-77.8136035
"765","KellyJoHoes","Minnesota, USA",46.729553,-94.6858998
"766","KarimLarreaO","Guayaquil Ecuador",-2.1709979,-79.9223592
"767","o2real365","Spartanburg, SC",34.9495672,-81.9320482
"768","j9duffy","Arlington, MA",42.4153925,-71.1564729
"769","agenciabrasil","Brasília - DF, Brasil",-15.826691,-47.9218204
"770","waltraudmilani","zanzibar - tanzania",-6.1357295,39.3621196
"771","aNaughtyAngel","No Limit, Nairobi, Kenya",-1.2664259,36.9224521
"772","TheFunnycator","Lekki, Nigeria",6.4698419,3.5851718
"773","CDCgov","Atlanta, GA",33.7489954,-84.3879824
"774","stedtenh0pp1A","Berlin, Germany",52.5200066,13.404954
"775","backpaincentre","Worcester Park, Surrey",51.38029,-0.24468
"776","j_moore30","Antigo, WI",45.140245,-89.1523353
"777","HRAEIxtapaluca","Ixtapaluca - Estado de México",19.3090538,-98.9079782
"778","eMPR","New York",40.7127753,-74.0059728
"779","NCIRS","Westmead",-33.80829,150.98208
"780","zazoomnews","Italia",41.87194,12.56738
"781","umbriajournal_","Umbria",42.938004,12.6216211
"782","AbxDukeRaleigh","Raleigh, NC",35.7795897,-78.6381787
"783","hammondfuturist","London and around the world",51.4033291,-0.2559327
"784","__Someone_","Con il cuore a Madrid <U+0001F494>",40.4167754,-3.7037902
"785","duduweizmann","Brazil",-14.235004,-51.92528
"786","TheAppalachian","Boone, NC",36.216795,-81.6745517
"787","karicastillo29","México",23.634501,-102.552784
"788","Flu_Killer","Dollard des Ormeaux, Québec,Ca",45.4895636,-73.8205567
"789","marcomerlino19","Italia",41.87194,12.56738
"790","vyhbrito","Macondo",40.7370535,-74.0016966
"791","c43l4n","Nunavut, Canada",70.2997711,-83.107577
"792","Rennanwalt","Andwil (SG), Schweiz",47.4392496,9.2708089
"793","ghirabs","Pisogne, Lombardia",45.8026557,10.1061663
"794","RavennaEventing","Ravenna, Italy",44.4183598,12.2035294
"795","CDCofBC","Vancouver, British Columbia",49.2827291,-123.1207375
"796","phooria","Vicenza, Veneto",45.5454787,11.5354214
"797","ShopFirstAid","Macroom, Cork",51.9048039,-8.9588478
"799","antichensoo","mEXicO",23.634501,-102.552784
"800","radioinvisibili","roma",36.0766378,-95.9036356
"801","Librietv","Lainate ",45.5709318,9.0257547
"802","zazoomblog","Italy",41.87194,12.56738
"803","inarteziogio","Italy",41.87194,12.56738
"804","imparoastudiare","Bologna, BO, Italia",44.494887,11.3426162
"805","the_paper_link","Shanghai",31.2303904,121.4737021
"806","WordManWord","ATL",33.6407282,-84.4277001
"807","DutyOfAPatriot","Green Dragon, Boston",42.361437,-71.05679
"808","alexandraerin","Hagerstown",39.6417629,-77.7199932
"809","TriathBlade","Roma",36.0766378,-95.9036356
"810","Turismoromaweb","Roma",36.0766378,-95.9036356
"811","ENobleSchCorp","Kendallville, Indiana",41.4414384,-85.2649754
"812","1019Rocks","Maine & New Brunswick",45.253783,-69.4454689
"813","bigcountry969","Maine & New Brunswick",45.253783,-69.4454689
"814","Q961FM","Maine & New Brunswick",45.253783,-69.4454689
"816","luuurensa","Pedergnano_Erbusco_Brescia",45.5886201,9.9868654
"817","cookie_ketchup","Schwarzenberg/Erzgebirge, Deut",50.5425641,12.7792228
"818","draninanoreen","México",23.634501,-102.552784
"819","Miranalva","México, D.F.",19.4326077,-99.133208
"820","SuellenBorgesit","Brasil",-14.235004,-51.92528
"821","RogerAntoniazzo","Chicago, IL",41.8781136,-87.6297982
"822","P_CG_","Napoli",36.3331041,-94.1790315
"824","femtobrewster","London",51.5073509,-0.1277583
"825","ElHeraldodeChis","Tuxtla Gutiérrez, Chiapas",16.7516009,-93.1029939
"826","lavozfrontera","Mexicali, B.C. México",32.6245389,-115.4522623
"827","e_tangassi","Mexico",23.634501,-102.552784
"828","celinahd","México",23.634501,-102.552784
"829","Presenciapr","Puerto Rico",18.220833,-66.590149
"830","UHRainbowBabies","Cleveland, Ohio",41.49932,-81.6943605
"831","SouthTahoeNow","South Lake Tahoe, CA",38.939926,-119.9771868
"834","BIOCIENCIA2013","Cumaná",10.431916,-64.183316
"835","nbcchicago","Chicago, IL",41.8781136,-87.6297982
"837","mnhealth","St. Paul, Minnesota",44.9537029,-93.0899578
"841","ColonoterapiaM","Cd. de Mexico",19.4326077,-99.133208
"842","Succhiandiamo","Sardinia, Italy",40.1208752,9.0128926
"843","luisreyva","ciudad de mexico",19.4326077,-99.133208
"844","prensaanimal4","Distrito Federal, México",19.4326077,-99.133208
"845","cristinamacca","Milano, Lombardia",45.4642035,9.189982
"846","aleyakassam","Nairobi, Kenya",-1.2920659,36.8219462
"847","Noticias_IGSS","Guatemala",15.783471,-90.230759
"848","lakejimin","HOPE WORLD",32.8112737,-117.1997836
"849","eduardoalbag","Chihuahua, México",28.6329957,-106.0691004
"850","DraAChvez","DF",40.706652,-111.8889542
"851","e_consulta","Puebla, México",19.0414398,-98.2062727
"853","ElSoldeTijuana1","Tijuana",32.5149469,-117.0382471
"854","Lafayette_Grant","Wisconsin, USA",43.7844397,-88.7878678
"855","Clim8Resilient","Happy Valley, OR",45.4469139,-122.5309127
"856","troymedia","Canada",56.130366,-106.346771
"857","currentcee_","Jamaica",18.109581,-77.297508
"858","Planoinforma","San Luis Potosí, México",22.1564699,-100.9855409
"859","EmanuelaPacotto","Milano",39.0825197,-94.5823061
"860","AndrewE_Johnson","DC Area",39.1289725,-77.3783789
"861","keidekay","Tulsa, OK",36.1539816,-95.992775
"862","grip54","Nancy, France",48.692054,6.184417
"864","KathyOlliveira","Curitiba, Brazil",-25.4808762,-49.3044253
"866","MDExpressva","Hampton Roads, VA",36.9614181,-76.386818
"867","tynishakeli","Earth ",37.2321077,-95.7243335
"869","MXQNoticias","Estado de México",19.4968732,-99.7232673
"870","larfssa","São José dos Campos, Brasil",-23.223701,-45.9009074
"871","PapillonBaron","Lyon, France",45.764043,4.835659
"872","tawneyfrogmouth","Leipzig, Deutschland",51.3396955,12.3730747
"873","IHAConnect","Indianapolis, IN",39.768403,-86.158068
"875","KrauseDoris","Winter Haven, Fl",28.0222435,-81.7328567
"876","WW1CC","Washington, DC",38.9071923,-77.0368707
"877","HunterProbss","El Paso, TX",31.7618778,-106.4850217
"878","NotizieIN","Italia",41.87194,12.56738
"879","elissa_men","México ",23.634501,-102.552784
"880","MauZannini","Cadoneghe, Veneto",45.4440542,11.9300958
"881","GertvanderHoek","Netherlands",52.132633,5.291266
"882","AmandaBalconi","México, D.F.",19.4326077,-99.133208
"883","AquinoCornejo","Ecuador",-1.831239,-78.183406
"884","domalex82","Firenze",43.7695604,11.2558136
"885","diarioelmundo","Córdoba, Veracruz",18.8838909,-96.9237751
"886","_NoItsPatrick","Maryland ",39.0457549,-76.6412712
"887","davidh7426","Stockport, Uk",53.3933102,-2.1266325
"888","lulucastadiva","Sardegna, Italia",40.1208752,9.0128926
"889","Cupidkill_er","Park Lane ",32.8709834,-96.7677647
"890","Barchester_care","UK",55.378051,-3.435973
"891","AZUelzen","Uelzen",52.9658199,10.5580304
"892","AltmarkZeitung","Altmark",40.809398,-73.9299489
"893","nickmuthumbi","Nairobi, Kenya",-1.2920659,36.8219462
"894","TGIA50","Iowa, USA",41.8780025,-93.097702
"895","MT__87","Italy",41.87194,12.56738
"896","GlobalPHObserv","Baltimore MD USA",39.2903848,-76.6121893
"897","iAmMarianela_","Mexico City ",19.4326077,-99.133208
"898","LizzyMcGuire419","Port Clinton, OH",41.5119954,-82.9376919
"899","dhootdoot","<U+4E2D><U+56FD>,china",35.86166,104.195397
"900","MMTVLaguna","Torreón, Comarca Lagunera",25.519984,-103.4164264
"901","CrystalRun","Hudson Valley, NY",41.9209018,-73.9612887
"902","jrbaia","Manaus - Amazonas - Brasil",-3.1190275,-60.0217314
"903","mccrenshaw","Atlanta, Georgia ",33.7489954,-84.3879824
"904","VacZineAnalytic","United Kingdom",55.378051,-3.435973
"905","ilmessaggeroit","Rome",41.9027835,12.4963655
"906","YFarsakoglu","San Diego, CA",32.715738,-117.1610838
"907","KarlyKennelly","Saint Thomas, ND",48.6191614,-97.4470838
"908","yeIIowcurtains_","Hogwarts",28.4722475,-81.4736377
"909","KarpatHir","Kárpátalja",48.6208,22.287883
"910","DrPChouinard","Moncton, NB CANADA",46.0878165,-64.7782313
"911","tpi","Rome, Italy",41.9027835,12.4963655
"912","BenCh_EM","Iowa City, IA",41.6611277,-91.5301683
"913","USTribuneNews","Las Vegas, NV",36.1699412,-115.1398296
"914","cuestione","Mexico",23.634501,-102.552784
"915","nailsontenazor","Atalaia do Norte",-4.3655403,-70.1924957
"916","euronewsit","Europa",39.0730617,-94.578957
"917","KLOG1490","Kelso Washington",46.146779,-122.9084445
"918","sundhedspanel","Aalborg, Danmark",57.0488195,9.921747
"919","emmykegler","Minneapolis",44.977753,-93.2650108
"920","TCHDHealth","Greenwood Village, CO",39.6172101,-104.9508141
"921","anaabecassis","Parintins, Brasil",-2.633616,-56.7319696
"922","stevekemple_inc","Cincinnati, OH",39.1031182,-84.5120196
"923","ustrason","Izmir, Türkiye",38.423734,27.142826
"924","hpscireland","Dublin, Ireland",53.3498053,-6.2603097
"925","JABell27","Maryland, USA",39.0457549,-76.6412712
"926","TelemundoCHI","Chicago, IL",41.8781136,-87.6297982
"927","Mommie_Hass","Minnesota, USA",46.729553,-94.6858998
"928","sanachan91","Italia",41.87194,12.56738
"930","softpcaralho","Brasilia, DF ",-15.826691,-47.9218204
"931","SusanVega33","San Francisco, CA",37.7749295,-122.4194155
"932","RDP_Dentist","Hammersmith, West London ",51.491187,-0.223731
"933","Skatli_20","Kroonstad, South Africa",-27.6372514,27.2323367
"934","anna_f81","Milano, Lombardia",45.4642035,9.189982
"935","BcademyIT","Pordenone",45.9563684,12.661452
"936","aafp","Leawood, KS",38.966673,-94.6169012
"938","Jamie_Eaves","Birmingham, UK",52.486243,-1.890401
"939","AbbieATC","Cincinnati, Ohio",39.1031182,-84.5120196
"940","twigpro","Bergamo",45.6982642,9.6772698
"941","YoNews","internet",37.2239612,-95.7304251
"942","fpincio","Salve, Puglia",39.858938,18.2972033
"943","LouBell","Scotland, United Kingdom",56.4906712,-4.2026458
"944","SorayaCastroLL","Rep. Dominicana",18.735693,-70.162651
"945","GazzettaDelSud","Sicilia / Calabria",38.2512005,15.7180247
"946","sick_bxtch","Phoenix, AZ",33.4483771,-112.0740373
"947","jjyama","BC, Canada, Earth",49.2891439,-123.1152145
"948","drmarynguyen","Castroville, TX",29.3557903,-98.8786387
"949","PeggyMMwanza","Nairobi, Kenya",-1.2920659,36.8219462
"950","dydsix","Budapest, Hungary",47.497912,19.040235
"951","himvhan","Torino | Hisachul’s MC",45.0699171,7.6857881
"953","fuggire_","Lombardy, Italy",45.4790671,9.8452433
"954","Fla_Medic","West Central Florida",27.993216,-82.45974
"955","strain_maxi","Austria",47.516231,14.550072
"956","DrByrneChiro","Howland Center, OH",41.2511682,-80.7453575
"957","Crof","North Vancouver, BC",49.3199816,-123.0724139
"958","TulsaHealthDept","Tulsa, OK",36.1539816,-95.992775
"959","jazzentacones","Chilangolandia",32.8436493,-96.6887561
"960","Battelle","Columbus, OH",39.9611755,-82.9987942
"961","FedeManabi","Ecuador  Portoviejo",-1.054723,-80.4524903
"962","apexreps","Lemont, IL ",41.673642,-88.0017261
"963","MaureenSpence24","North Weymouth, MA",42.2459331,-70.9467133
"964","MedGizmo","New York, NY",40.7127753,-74.0059728
"965","cristinaizbe","México",23.634501,-102.552784
"966","CDCDirector","Atlanta, GA",33.7489954,-84.3879824
"967","PortaldoAM","Manaus, Brazil",-3.1190275,-60.0217314
"968","Chris__Merritt","Providence, RI",41.8239891,-71.4128343
"969","Aim911","Greenwood, IN",39.6136578,-86.1066526
"970","elcalamar","México",23.634501,-102.552784
"971","lucky_ducky101","Stockton, California, USA",37.9577016,-121.2907796
"972","jkxcomics","Madison | San Fran | Philly",37.764802,-122.486625
"973","isett4","Roma",36.0766378,-95.9036356
"974","jarotter","ITAM",19.3450908,-99.2001039
"975","maurovanetti","Pavia, Lombardy",45.1847248,9.1582069
"976","Nihilon45","Australia, UK, NZ, Eire etc etc",-25.274398,133.775136
"977","amarcadia","Anywhere",32.9407362,-97.0855361
"978","War_ina_babylon","Okporo coaltar na Ah<U+1ECB>a Owerre ",5.8,6.983333
"979","CENETEC","Av. Marina Nacional No. 60, ala B piso 9, Col. Tacuba, Demarcación Territorial Miguel Hidalgo, C.P. 11410 CDMX Tel. 6392 4300 Ext.52415",19.4535008,-99.1858385
"980","CillianDeGascun","Dublin, Ireland",53.3498053,-6.2603097
"981","RickyJarero","Mexico",23.634501,-102.552784
"982","rita21411","Texas, USA",31.9685988,-99.9018131
"983","MaryECosenza","Moorpark CA",34.285558,-118.8820414
"985","DrugStoreNews","New York, NY",40.7127753,-74.0059728
"987","LaVozaz","Phoenix",33.4483771,-112.0740373
"988","IsraelReyesMtz","Saltillo, Coahuila. ",25.4383234,-100.973678
"989","claravallejo","CELAYA GTO. MEXICO",20.5279612,-100.8112885
"990","FolhaMaues","Amazonas, Brazil",-3.4168427,-65.8560646
"991","SPOOKY_MiLKSOAP","Catania",37.5078772,15.0830304
"992","Matt_JDickinson","Oxford, England",51.7520209,-1.2577263
"993","VindicoMedEd","Thorofare, NJ",39.8422093,-75.1969346
"994","BKilby","Mooresville, NC",35.5859146,-80.8081413
"995","mister_blank","Near Worcester, MA",42.2625932,-71.8022934
"996","FayCortez","Minneapolis",44.977753,-93.2650108
"997","rikmasukses","Bandung, Jawa Barat",-6.9174639,107.6191228
"998","paoacro","Pachuca, Hgo.",20.1010608,-98.7591311
"999","23701FD","Chesapeake,  VA - USA",36.7682088,-76.2874927
"1000","beccahathaway42","Ankeny, IA",41.7317884,-93.6001278
"1001","FHMC_NYC","4500 Parsons Blvd, Queens NY",40.7552678,-73.8166179
"1002","Pharm_A_Save","Monroe, WA",47.8553772,-121.970958
"1003","ItalianPolitics","Rome",41.9027835,12.4963655
"1004","BigSnugALot","Providence, RI",41.8239891,-71.4128343
"1005","kaurisar","H, V",38.3912618,-78.9162406
"1006","balchirritos","Narvarte Poniente, Benito Juárez",19.3923907,-99.1580693
"1008","dishgirl4","On stolen Sauk & Meskwaki land",43.4066375,-89.9253233
"1009","ND_BravesFAN","North Dakota, USA",47.5514926,-101.0020119
"1010","LDCHEALTH","Lawrence, Kansas",38.9716689,-95.2352501
"1011","NIALLSV93","Italia",41.87194,12.56738
"1012","ArockPlays","New Tech City",39.1109529,-94.5770782
"1013","rebugmp4","Los Angeles, CA",34.0522342,-118.2436849
"1014","SanayHermosa","México",23.634501,-102.552784
"1015","GaryClark82","Dartford",51.44621,0.216872
"1016","RepinWolf","Grand Rapids, MN",47.2371658,-93.5302142
"1017","CIDRAP","Minneapolis, MN",44.977753,-93.2650108
"1018","AberdeenNews","Aberdeen, SD",45.4646985,-98.4864829
"1019","RTFilingsStocks","New York, USA",40.7127753,-74.0059728
"1020","EINH1N1News","Washington, D.C.",38.9071923,-77.0368707
"1021","JOCOHealth","Olathe, KS",38.8813958,-94.8191285
"1022","JuanGrvas","España, Spain",40.463667,-3.74922
"1023","minnablog","<U+6771><U+4EAC>",35.7090259,139.7319925
"1024","ASMicrobiology","Washington, DC",38.9071923,-77.0368707
"1025","NewportLost","Sea Level Covfefe RI",41.5800945,-71.4774291
"1026","Lo_Zanzi","Boston, MA",42.3600825,-71.0588801
"1027","murksmusings","Illinois",40.6331249,-89.3985283
"1028","strong_girl2012","Southampton, England",50.9097004,-1.4043509
"1029","ppalbureau","Benito Juárez",41.8531528,-87.6642641
"1030","_AndrewSchmidt","Atlanta, GA",33.7489954,-84.3879824
"1031","Fernando_Memoli","Salerno, Campania",40.6824408,14.7680961
"1032","Cyclingnewsfeed","Everywhere",33.7589188,-84.3640829
"1033","caitlyn_weir","Mount Ayr, ia",40.7147147,-94.235232
"1035","TargetMrkting","Hershey, PA",40.2859239,-76.6502468
"1037","ACSP_Canada","Canada",56.130366,-106.346771
"1038","CPHO_Canada","Canada",56.130366,-106.346771
"1039","ChapinNewsSC","Dutch Fork Areas",34.153168,-81.1994999
"1040","TranSpoNewsEnIt","JAPAN",36.204824,138.252924
"1041","amtz_rafa","Mexico",23.634501,-102.552784
"1042","drmiguelmarcos","Salamanca, Spain",40.9701039,-5.6635397
"1043","570NEWS","Kitchener, Ontario",43.4516395,-80.4925337
"1044","notizieoggi_com","Milano, Lombardia",45.4642035,9.189982
"1045","abtassociates","Cambridge, Massachusetts",42.3736158,-71.1097335
"1046","Tbauze","Warri, Nigeria",5.5543995,5.7932008
"1048","paj8588","Missouri, USA",37.9642529,-91.8318334
"1049","jjeh3010","Colombia",4.570868,-74.297333
"1050","VerisEcuador","Ecuador",-1.831239,-78.183406
"1052","SaludTlaxcala","Tlaxcala, México",19.318154,-98.2374954
"1053","mylifestoryA","Roma, Lazio",41.8902259,12.5065278
"1054","SiouxlandHealth","Sioux City, IA",42.4963416,-96.4049408
"1055","rivadeneyra_j","México",23.634501,-102.552784
"1056","cuauco","DF",40.706652,-111.8889542
"1057","Debbie29490650","Texas <U+0001F1E8><U+0001F1F1>, USA <U+0001F1FA><U+0001F1F8>",31.9685988,-99.9018131
"1058","NChardonnet","Saint Louis",38.6270025,-90.1994042
"1059","mydocgarfieldnj","Garfield, NJ",40.8814882,-74.113198
"1060","juveuniquelove","Seattle, WA",47.6062095,-122.3320708
"1061","elarsenalmx","Ciudad de México",19.4326077,-99.133208
"1062","falsalem76","<U+0627><U+0644><U+0631><U+064A><U+0627><U+0636> . <U+0627><U+0644><U+0623><U+062D><U+0633><U+0627><U+0621>",24.6822077,46.7341671
"1063","bettypra","Toscana, Italia",43.7710513,11.2486208
"1064","finndesigner","London",51.5073509,-0.1277583
"1065","kayeyewhy","New York, USA",40.7127753,-74.0059728
"1067","almartin1452","Reading Hospital",40.3297212,-75.9492705
"1068","Diosenlanoticia","Venezuela",6.42375,-66.58973
"1069","MarckVoltury","Toluca",19.2826098,-99.6556653
"1071","galaxyhorsera1","Fingal, Ireland",53.4923939,-6.2539777
"1072","CapitalistFraud","London, England",51.5073509,-0.1277583
"1073","gigi695","Casnigo, Lombardia",45.8157796,9.8680159
"1074","chordsvoice","Italy",41.87194,12.56738
"1075","diariocorreo","Lima - Perú",-12.0463731,-77.042754
"1076","Canal66TV","Mexicali, BC",32.6245389,-115.4522623
"1077","SECOB_Ec","Quito, Ecuador",-0.1806532,-78.4678382
"1078","PIDSociety","Arlington, VA",38.8816208,-77.0909809
"1080","manausalerta","Manaus / AM / Brasil",-3.1190275,-60.0217314
"1081","ADonatiMD","San Antonio, TX",29.4241219,-98.4936282
"1082","JJMLondon","London/Surrey",51.4930328,-0.0464699
"1083","Monica73774598","Rignano sull'Arno, Toscana",43.7235312,11.4468796
"1084","SciencePharmer","Petawawa, Ontario",45.8982631,-77.2828772
"1085","chiarezza_0","rome",41.9027835,12.4963655
"1086","GSPOInc","Hamilton, NJ",40.2115109,-74.6796651
"1088","RNArenzano","Arenzano",44.4058612,8.6860167
"1089","JayINC","Amsterdam, Netherlands",52.3679843,4.9035614
"1090","lostandsleepy_","Como/Milano",32.7630456,-117.1054876
"1091","tsubasahayashi2","Japan",36.204824,138.252924
"1092","Geospatial_DA","Sparks, MD",39.5309389,-76.6458043
"1093","nutritiontastic","New York, NY",40.7127753,-74.0059728
"1094","Love_ThatsMe","Anchorage, AK",61.2180556,-149.9002778
"1095","Zem_subs","Hungary",47.162494,19.5033041
"1096","eClinicalTrial","Barcelona & virtual",41.3850639,2.1734035
"1097","rimbui","Where there's Wifi",36.5078446,-94.2774629
"1098","PaoGomezW","San Luis Potosí, México",22.1564699,-100.9855409
"1099","sharonbrookes8","Weybridge ",51.3716269,-0.457904
"1100","Capital_21","Ciudad de México",19.4326077,-99.133208
"1101","GabriellaGrima5","Italia",41.87194,12.56738
"1102","_jessbu","Treaty 1, Winnipeg, Manitoba",49.8896966,-97.142414
"1103","DenizardOficial","Manaus, Brazil",-3.1190275,-60.0217314
"1104","escitalopramm","Firenze",43.7695604,11.2558136
"1105","mike_peinsipp","Wayegon, KY",37.8393332,-84.2700179
"1107","claudia_gln","Modena, Emilia Paranoica <U+2935>",44.647128,10.9252269
"1108","MarioFloresss","Phoenix, AZ",33.4483771,-112.0740373
"1110","danielaremson","Nigeria",9.081999,8.675277
"1111","Doubleballz","Saint-Tropez, France ",43.2676808,6.6407109
"1112","ghw55","Newark, Delaware",39.6837226,-75.7496572
"1114","adrenlo25","Panamá",8.537981,-80.782127
"1115","BuddyB04863931","Midwest, USA",35.463494,-97.4107128
"1116","AndreaSalazarG8","Hermosillo, Sonora",29.0729673,-110.9559192
"1117","kariusdx","California, USA",36.778261,-119.4179324
"1118","unichicago","Chicago",41.8781136,-87.6297982
"1120","nativeminnow","The Shallows",41.3792957,-71.8305271
"1121","neil_bodie","Pasadena CA",34.1477849,-118.1445155
"1122","CDTManati","Manatí, Puerto Rico",18.433005,-66.4758583
"1124","LagarrapataS22","Oaxaca",17.0731842,-96.7265889
"1125","ChrisLoesch","Texas",31.9685988,-99.9018131
"1126","donaldhackett","Houston, TX",29.7604267,-95.3698028
"1127","miguel_reyesMD","Manhattan, NY",40.7830603,-73.9712488
"1128","onwnews","Oshkosh, Wisconsin",44.0247062,-88.5426136
"1131","BaileyHurleyVNL","Fargo, ND",46.8771863,-96.7898034
"1132","UCNetworkOmaha","Omaha, NE",41.2565369,-95.9345034
"1133","PoetryAlive","Asheville, NC",35.5950581,-82.5514869
"1134","AntonNoticias","Querétaro Arteaga, México",20.5888184,-100.3898876
"1135","freacielo","Manila, Philippines",14.5995124,120.9842195
"1136","Fabriziosmarket","Hamilton,On",43.2557206,-79.8711024
"1137","JohnMaintenanc1","Nantahala National Forest",35.2881467,-83.666558
"1138","fioridimagnolia","Toscana, Italia",43.7710513,11.2486208
"1139","JucyBaOficial","Brazil",-14.235004,-51.92528
"1140","AlaskanCourtney","Alaska",64.2008413,-149.4936733
"1141","KPWaResearch","Seattle, WA",47.6062095,-122.3320708
"1143","qui_e_ora_","Italy ",41.87194,12.56738
"1144","wortfeilchen","bochum",51.4818445,7.2162363
"1145","lakeeriecollege","Painesville, Ohio",41.7244885,-81.245657
"1146","PoderosaBasket","Montegranaro",43.2303873,13.6285253
"1147","gurceyhan","Büyükbeybagi, Tokat",40.2765564,36.5323402
"1148","adn_sureste","Oaxaca, Mexico",17.0731842,-96.7265889
"1149","Wasssaname","Brooklyn, NY",40.6781784,-73.9441579
"1150","anticuaeguiara","Cd de México - San Luis Potosí",22.1564699,-100.9855409
"1151","Rev_Danielle","Edmonton",53.544389,-113.4909267
"1152","davidmakali1","Nairobi, Kenya",-1.2920659,36.8219462
"1153","cagliaripad","Cagliari",39.2238411,9.1216613
"1156","germanpigvet","United Kingdom",55.378051,-3.435973
"1157","RichidsCoulter","San Diego, CA",32.715738,-117.1610838
"1158","deborah91473","St Louis",38.6270025,-90.1994042
"1159","paolacontini64","Milano",39.0825197,-94.5823061
"1160","legcross1371","Novara, Piemonte",45.44693,8.6221612
"1161","DompeFarma","Milan, Lombardy",45.4642035,9.189982
"1162","dominicanoahora","República Dominicana",18.735693,-70.162651
"1163","DVGoldCoast","Norwalk, CT",41.117744,-73.4081575
"1164","DVBridgeport","Bridgeport, CT",41.1792258,-73.1894384
"1165","DVFairfield_N","Wilton, CT",41.1953739,-73.4378988
"1166","SDDOH","Pierre, SD",44.3667876,-100.3537522
"1168","HCB_Foxes","Bolzano",46.4982953,11.3547582
"1169","diarioelpopular","Puebla, Puebla",19.0414398,-98.2062727
"1170","juditlingon","Strömstad, Sverige",58.9383459,11.1791872
"1171","Wuffipaul","Deutschland <U+0001F1E9><U+0001F1EA>",51.165691,10.451526
"1172","AlfVann","Florence, Italy",43.7695604,11.2558136
"1173","JOteyArt","Italia",41.87194,12.56738
"1174","johncachero","Hampton Roads, Virginia",37.0298687,-76.3452218
"1175","windsorhorse","Windsor, Berkshire",51.4817279,-0.613576
"1176","NewarkDHCW","110 William Street, Newark, NJ 07102",40.7345134,-74.1789969
"1177","MadisonVirology","Wisconsin, USA",43.7844397,-88.7878678
"1178","jeremycsnyder","Vancouver, BC",49.2827291,-123.1207375
"1179","BlueHenNat","California, Delaware",34.2504858,-118.5969506
"1180","ALZtivista","San Salvador, El Salvador",13.6929403,-89.2181911
"1181","QueensPHPM","Kingston, Ontario",44.2311717,-76.4859544
"1182","JacesJarsofHope","Wisconsin, USA",43.7844397,-88.7878678
"1183","Periodico5inco","Cd. Victoria, MX",23.7369164,-99.1411154
"1184","Tchepinhaa","guarulhos",-23.4543395,-46.5336678
"1185","richieteodia","Monterrey",25.6866142,-100.3161126
"1187","nomasmequejo","Distrito Federal, México",19.4326077,-99.133208
"1188","Faisalnaifaru","Maldives",3.202778,73.22068
"1189","TurismoEc","Ecuador",-1.831239,-78.183406
"1190","Ashley03278285","Nebraska, USA ",41.4925374,-99.9018131
"1192","MotherToBaby","North America",54.5259614,-105.2551187
"1193","BlueHenPhoebe","Newark, DE",39.6837226,-75.7496572
"1194","carloemme50","Forlì, Emilia Romagna",44.2227398,12.0407312
"1195","horstie","Nijmegen, The Netherlands",51.8448837,5.8428281
"1196","trinitykronlein","tx",31.9685988,-99.9018131
"1197","Arcsa_Ec","Guayaquil, Ecuador",-2.1709979,-79.9223592
"1198","PeronaLab","Glasgow, Scotland",55.864237,-4.251806
"1200","alonsob_exmsft","Seattle, WA",47.6062095,-122.3320708
"1202","_AreaDan","Cyclone Country",42.0237961,-93.6093761
"1203","rinaldysofwan","Jakarta",-6.2087634,106.845599
"1204","BagalueSunab","Trinidad and Tobago",10.691803,-61.222503
"1205","_lovelycms","19 | she/her ",34.7315083,-86.5898086
"1206","TurnerNovak","Grand Rapids, MI",42.9633599,-85.6680863
"1207","ThugPugMom","Bowling Green, KY",36.9685219,-86.4808043
"1208","MyBestestThing","Earth",37.2321077,-95.7243335
"1209","Novca12","Zemplén! ",48.4,21.4166999
"1210","infoitcultura","Italia",41.87194,12.56738
"1211","Percepcioon","Hermosillo,Sonora,México",29.0729673,-110.9559192
"1212","ZeClint","on dirait le sud",50.1359331,4.8261927
"1213","DMHospitalGroup","Ireland",53.1423672,-7.6920536
"1214","AztecaSiete","México",23.634501,-102.552784
"1215","PKO823","Canada",56.130366,-106.346771
"1216","ipacuhn","Toronto, Ontario",43.653226,-79.3831843
"1217","ZArtofWellness","California",36.778261,-119.4179324
"1218","JuanLuisGlzT","Monterrey, Nuevo León",25.6866142,-100.3161126
"1220","AfroVII","London. Lagos.",51.4273412,-0.0550886
"1221","AndorraCare","Selangor, Malaysia",3.0738379,101.5183469
"1222","nymedcollege","Valhalla, NY",41.0748188,-73.7751326
"1223","FrancPalm","Napoli ",36.3331041,-94.1790315
"1224","XMERIDIO78","Puglia, Italia",40.7928393,17.1011931
"1225","Alert_Monitor","Global",37.0329949,-95.6400855
"1226","alfonso_casi","Vitoria-Gasteiz, Spain",42.8591656,-2.6817918
"1227","PRI_Insurance","Roslyn, NY",40.7998227,-73.6509622
"1228","JulioMattus","Manaus-Am",-3.1190275,-60.0217314
"1229","SITNBoston","Boston, MA",42.3600825,-71.0588801
"1230","qeastman","Decatur, GA",33.7748275,-84.2963123
"1232","hunnomad","Budapest, Hungary",47.497912,19.040235
"1233","OneHealthUF","Gainesville, FL",29.6516344,-82.3248262
"1234","Salud_CZ2","Ecuador",-1.831239,-78.183406
"1235","3lla_L4QcFu3","NYC",40.7127753,-74.0059728
"1236","remiromi1","Roma, Lazio",41.8902259,12.5065278
"1237","ImpactUN","New York",40.7127753,-74.0059728
"1238","medpagetoday","New York, NY",40.7127753,-74.0059728
"1239","MeganoticiasSCR","Salina Cruz, Oaxaca",16.1842839,-95.2087625
"1240","f_purbawan","Semarang",-7.0051453,110.4381254
"1241","primeirahoramt","Rondonópolis - MT",-16.465423,-54.6387934
"1242","FavoriteGoat","In the barn!",41.9532177,-72.7863818
"1243","WildlifeDisease","Lawrence, Kansas",38.9716689,-95.2352501
"1244","painelpolitico","Brasília, Brazil",-15.826691,-47.9218204
"1245","PremierShowIT","Italia",41.87194,12.56738
"1246","Carolinaking81","celaya gto",20.5279612,-100.8112885
"1247","ruxnor","Antofagasta, Chile",-23.6509279,-70.3975022
"1248","hivsurvival","Kota Surabaya, East Java",-7.2574719,112.7520883
"1249","MansfieldNews1","Mansfield, Mass",42.0334565,-71.2190578
"1250","madrockworld","Italia",41.87194,12.56738
"1251","udarnik","Northern Hemisphere",43.214231,-77.438898
"1252","ReumaStat","Guayaquil, Ecuador",-2.1709979,-79.9223592
"1253","AdamPugh","London, UK",51.5073509,-0.1277583
"1254","OPirson","Bruxelles",50.8503396,4.3517103
"1255","carnimvora","Bogor, Jawa Barat",-6.5971469,106.8060388
"1256","_alexismccarthy","Portage, MI",42.2011538,-85.5800022
"1258","ReginaPhelps","San Francisco, CA",37.7749295,-122.4194155
"1259","rbarishansky","Pennsylvania, USA",41.2033216,-77.1945247
"1260","sxxfeniks_","Brasília, Brasil",-15.826691,-47.9218204
"1263","RoseSenan8","warsaw, poland",52.2296756,21.0122287
"1264","Salud_Hidalgo","Hidalgo, México",20.0910963,-98.7623874
"1265","angel42710","West Point, UT",41.1182767,-112.08411
"1266","Coleah","No. Central Missouri",38.97645,-92.328842
"1267","Fliff96","Philadelphia, PA",39.9525839,-75.1652215
"1268","ReporterosMayab","Mérida, Yucatán",20.9673702,-89.5925857
"1270","fernandoyt","NYC / MXCity",40.7127753,-74.0059728
"1271","JewelNature","Queensland Australia Global ",-27.4976238,153.0147336
"1272","omgdalton","Northern California",38.8375215,-120.8958242
"1273","clucylf","Monterrey, Nuevo León Mexico",25.6866142,-100.3161126
"1274","Notimex","México",23.634501,-102.552784
"1275","mmw_lmw","La Jolla, CA. USA",32.8328112,-117.2712717
"1276","HolgerKropp","Haderslev, Danmark",55.250072,9.48911
"1277","teranderss","Clavería, Azcapotzalco",19.4649276,-99.1802147
"1278","heckyessica","Dallas, TX",32.7766642,-96.7969879
"1279","VincentMele92","Salerno, Campania",40.6824408,14.7680961
"1280","hooponopono7","MÉXICO",23.634501,-102.552784
"1281","matteo_milan91","Quasi Italia",41.87194,12.56738
"1282","Yucatan_Informa","México, Mérida, Yucatán.",20.9673702,-89.5925857
"1283","SSM_Morelos","Morelos, México",18.6813049,-99.1013498
"1285","pat_ipica","Lombardia",45.4790671,9.8452433
"1286","PaoloAlberti17","Castelbaldo, Veneto",45.1249032,11.4563324
"1287","pipandbaby","Connecticut, USA",41.6032207,-73.087749
"1288","schneiderleonid","Frankfurt on the Main, Germany",50.1109221,8.6821267
"1289","abuenozu","México",23.634501,-102.552784
"1290","ensenadaonline","Ensenada B.C.",31.8667427,-116.5963713
"1291","313Altamimi","Baghdad, Iraq",33.315241,44.3660671
"1292","NOTIRIVAS","Mérida, Yucatán",20.9673702,-89.5925857
"1293","inward_eye","Leipzig",51.3396955,12.3730747
"1294","feelyourbest","Claremont, CA, USA",34.0966764,-117.7197785
"1295","INFORMATYUC","Mérida, Yucatán.",20.9673702,-89.5925857
"1296","ERamosPhD","Rockville, MD",39.0839973,-77.1527578
"1297","litalibar","Rio de Janeiro",-22.9068467,-43.1728965
"1298","trilenga","<U+65E5><U+672C>",36.204824,138.252924
"1299","bloody_eyeliner","Upside-Down ",45.499473,-122.653932
"1300","melerijenks","Carmarthen",51.85762,-4.312131
"1301","mmfbunny","Orlando, FL",28.5383355,-81.3792365
"1303","SsaldanhaNeto","Brazil",-14.235004,-51.92528
"1304","danielstefanski","Australia",-25.274398,133.775136
"1305","Corona_Pietro","Decimoputzu, Sardegna",39.3427645,8.8914256
"1306","mattstaggs","DC Metropolitan Area",39.1289725,-77.3783789
"1307","mikeyswalker","Twin Peaks",37.7235157,-97.2411054
"1308","FedeChloe","Italy",41.87194,12.56738
"1310","StefanBernstein","Italy / Milan",45.4642035,9.189982
"1311","Ptit__Lu","Turin, Piedmont",45.0703393,7.686864
"1312","mojerzgirl","from the back of beyond...",45.265937,-79.2126102
"1315","karibenape","Lima - Perú",-12.0463731,-77.042754
"1316","Wheretty","Finland",61.92411,25.7481511
"1317","spookybakemono","Naples - Italy",40.8517983,14.26812
"1319","NoahProoval","Montréal, Québec",45.5016889,-73.567256
"1320","libredevolar","Italia",41.87194,12.56738
"1321","TheJMSKitteh","IL",40.6331249,-89.3985283
"1322","BuntyBrown","Your Mom's House",39.7367329,-104.9794787
"1323","SilencingTrees","Portugal",39.399872,-8.224454
"1324","TapanuiFlu","New Zealand",-40.900557,174.885971
"1325","Fioredisaguaro","Italy",41.87194,12.56738
"1326","flowcare_","Omaha, NE",41.2565369,-95.9345034
"1327","Stefi282","Florence, Tuscany",43.7695604,11.2558136
"1328","YANKIEQUEBEK2","Viña del Mar, Chile",-33.0153481,-71.5500276
"1329","TV7Benevento","Benevento, Campania",41.1297613,14.7826208
"1330","delongarts","Zwolle, the Netherlands",52.5167747,6.0830219
"1331","AndreaCattani2","Lucca, Tuscany",43.8429197,10.5026977
"1332","Quebeccca","Ann Arbor, MI",42.2808256,-83.7430378
"1333","tamoensalsa","Isla Verde, USA",18.4255022,-66.0096099
"1334","mcvhaze","Virginia",37.4315734,-78.6568942
"1335","fl_west","Pinellas Park, FL",27.8428025,-82.6995443
"1336","dodena66","italia",41.87194,12.56738
"1338","TenthWondr","Root Chakra",41.411191,-122.1936871
"1339","SteelyClams","Ottawa, Ontario",45.4215296,-75.6971931
"1340","or__kelvin","Nairobi, Kenya",-1.2920659,36.8219462
"1342","TheIowaClinic","Central Iowa",41.8780025,-93.097702
"1343","cuneytozcan","London, England",51.5073509,-0.1277583
"1345","Vomit911","Michigan",44.3148443,-85.6023643
"1346","HRZManta","Manta - Manabí - Ecuador",-0.9676533,-80.7089101
"1347","Silvia31165","Rome, Lazio",41.9027835,12.4963655
"1349","AlboradaTixtla","Tixtla de Guerrero, Guerrero",17.567656,-99.3995924
"1350","glasslullabies","scotland",56.4906712,-4.2026458
"1352","YucatanEnCorto","Mérida Yucatán",20.9673702,-89.5925857
"1353","_LeMoog_","Germany",51.165691,10.451526
"1354","KimberlyMenegh2","Illinois, USA",40.6331249,-89.3985283
"1355","gallus_pallas","In the coop",33.1515505,-96.8345439
"1356","DYLocal","Mérida, Yucatán, México",20.9673702,-89.5925857
"1357","Mateusousaa_","São Bernardo do Campo, Brasil",-23.6898429,-46.5648481
"1358","erikneves","Brasília",-15.826691,-47.9218204
"1359","AdamMeier20","Fort Thomas, KY",39.0750607,-84.4471633
"1361","connors_md","Brigham and Women's Hospital, Dana Farber Cancer Institute, BOSTON",42.1330283,-71.5300405
"1363","ironlotus36","New Mexico, USA",34.5199402,-105.8700901
"1364","cymrocamden","europe",54.5259614,15.2551187
"1365","ingriddiamond","Mexico city",19.4326077,-99.133208
"1366","PedroAlec_11","Arroyo/ Humacao",18.1551337,-65.8203943
"1367","yucatanalinstan","Mérida Yucatán",20.9673702,-89.5925857
"1368","EvelynPringle","Wisconsin",43.7844397,-88.7878678
"1369","rustinmooredvm","Columbus, OH",39.9611755,-82.9987942
"1370","jennnn_idgaf","North Dakota, USA",47.5514926,-101.0020119
"1372","PERIODICORUTA","Tulancingo de Bravo,  Hidalgo",20.0904802,-98.3690922
"1373","natgeraldinee","monterrey | 16",25.6866142,-100.3161126
"1374","GalvaniM","Roma",36.0766378,-95.9036356
"1375","varesenews","Varese",45.8205989,8.8250576
"1376","soulfullofharry","London, England",51.5073509,-0.1277583
"1378","sportface2016","Italy",41.87194,12.56738
"1379","DiMarzio","Milano",39.0825197,-94.5823061
"1380","alba90yt","Mentone France",43.774481,7.49754
"1381","GwenSteffenDVM","Milford, OH",39.1753377,-84.2943821
"1382","_Cotu","Roma",36.0766378,-95.9036356
"1383","AnguloInforma","Durango, México",24.5592665,-104.6587821
"1384","judymorris3","Delaware, USA",38.9108325,-75.5276699
"1385","RichiNovela","Jakarta Capital Region",-6.2087634,106.845599
"1386","JustMeMatteo","Forlì, Emilia Romagna",44.2227398,12.0407312
"1387","UniradioInforma","Tijuana",32.5149469,-117.0382471
"1388","kbssidhu1961","Chandigarh, India",30.7333148,76.7794179
"1389","AndreaCavoti","Europa. Italia. Torino.",45.0703393,7.686864
"1390","TimesTranscript","Moncton, NB",46.0878165,-64.7782313
"1392","cherrywinedols","mexico • 16",19.4331734,-99.1427865
"1393","WomensHealthCT","Avon, CT",41.8096201,-72.8305154
"1394","HUniversitarioG","Guayaquil-Ecuador",-2.1709979,-79.9223592
"1395","PharmacyIcare","Edmonton, Alberta",53.544389,-113.4909267
"1398","dr_dmorgan","Baltimore, MD",39.2903848,-76.6121893
"1399","imago_mundi","Napoli, Italy",40.8517983,14.26812
"1400","let_heaven_open","Sicilia, Italia",37.5999938,14.0153557
"1401","pobier","Copenhagen, Denmark",55.6760968,12.5683372
"1402","CEVAXIN_PTY","Panama",8.537981,-80.782127
"1403","patrick_kri","Brædstrup",55.971645,9.611034
"1404","Ryan_Mac_Phd","Chapel Hill, NC",35.9131996,-79.0558445
"1405","DJGlittertitts","Maryland, USA",39.0457549,-76.6412712
"1406","realKyleOlbert","Washington, DC",38.9071923,-77.0368707
"1407","mad_sters","New York, NY",40.7127753,-74.0059728
"1410","t_point_uk","England, United Kingdom",52.3555177,-1.1743197
"1411","Alana48960097","Rio de Janeiro, Brasil",-22.9068467,-43.1728965
"1412","ohsinnerman","Am the frog down your back at the Carroll County picture show",39.5423418,-77.0564464
"1413","FranzDelCal","CDMX",19.4326077,-99.133208
"1414","Brittany_PA_C","Gainesville, FL",29.6516344,-82.3248262
"1415","ensenada","Ensenada, México.",31.8667427,-116.5963713
"1416","DanielComin","Tenerife España",28.2915637,-16.6291304
"1417","parabachim","Roma, Lazio",41.8902259,12.5065278
"1418","DoraKristina","Berlin",52.5200066,13.404954
"1419","Woland2485","Italia",41.87194,12.56738
"1420","thaniagal","Gdl || MX ",20.6596988,-103.3496092
"1421","estikasar","Sicily, Italy",37.5999938,14.0153557
"1422","cohdychristians","Ana",37.369891,-121.9300787
"1423","StabellBenn","Copenhagen, Denmark",55.6760968,12.5683372
"1424","EmilioCadernMne","México city.",19.4326077,-99.133208
"1425","mehravarr","Lahore, Pakistan",31.5203696,74.3587473
"1426","Vincenzo_Vita","Roma",36.0766378,-95.9036356
"1427","LACRONICA_LOCAL","Mexicali, Baja California",32.6245389,-115.4522623
"1428","ECOSYEXPRESION","Oaxaca, México.",17.0542297,-96.7132304
"1429","IlaEf","Milan, Italy",45.4642035,9.189982
"1430","FrkGiovanetti","Alba, Italy",44.7009153,8.0356911
"1431","cristinapecchio","Milano",39.0825197,-94.5823061
"1432","DraKeillaFr","Moema, São Paulo",-23.6020214,-46.6721032
"1433","Lalterego21","Marche, Italia",43.5058744,12.989615
"1435","HIAyoraLoja","Loja - Ecuador",-4.0078909,-79.2112769
"1436","GreenLPharmaUK","Saint Helens, England",53.456307,-2.737095
"1437","dadwithabeard","Lincoln",40.813616,-96.7025955
"1438","ViraBurnayeva","NoVA, USA",45.4604,-122.788377
"1440","HPGLatacunga","Latacunga, Ecuador",-0.931556,-78.60585
"1443","RiesHunter","Madison, WI",43.0730517,-89.4012302
"1444","FrMaselli","Rome, Lazio",41.9027835,12.4963655
"1445","cecilianadie","BDG",42.0557248,-87.8242239
"1446","sciliz","sweet coast elite",34.1301674,-118.0310414
"1447","HTDMACHALA","Machala",-3.2581112,-79.9553924
"1449","DrHugoMagdaleno","Celaya, Guanajuato",20.5279612,-100.8112885
"1450","DanielBolnick","University of Texas at Austin",30.2849185,-97.7340567
"1451","AlphaYommex","Lagos",6.5243793,3.3792057
"1452","DavidUnderdown9","London",51.5073509,-0.1277583
"1453","1grandmamean","Illinois, USA",40.6331249,-89.3985283
"1454","Salud_CZ7","LOJA",-4.0078909,-79.2112769
"1455","thijskuiken","Rotterdam, The Netherlands",51.9244201,4.4777326
"1456","gufopit","Mpo Qui Mpo Lì",40.789142,-73.134961
"1457","alexvespi","@northeastern ",43.2994285,-74.2179326
"1458","natan_bilga","München, Bayern",48.1351253,11.5819805
"1459","nicolol93","Firenze",43.7695604,11.2558136
"1460","DavideBalbi_","Cassino, Lazio",41.4866953,13.8332193
"1461","TheHavercakeLad","Fav food: Royale with cheese",42.3502691,-83.0636008
"1462","ivanrojasorg","Venezuela",6.42375,-66.58973
"1463","CaCemeteryHist","Canada",56.130366,-106.346771
"1464","GovDeception","top secret",43.6189584,-89.7844201
"1465","Master2001_3","Marche - Italy",43.5058744,12.989615
"1466","LisaAlesci","MA, NY, from N Irel 42 yrs ago",43.2994285,-74.2179326
"1467","squishyyyoongi_","Mexico",23.634501,-102.552784
"1468","Barbara60352463","Torino, Piemonte",45.0703393,7.686864
"1469","sery_s","Italia",41.87194,12.56738
"1470","PublicHealthUMN","Minnesota",46.729553,-94.6858998
"1471","Newsinunclick","Turin, Piedmont",45.0703393,7.686864
"1472","OSUhsl","Columbus, OH",39.9611755,-82.9987942
"1473","madeexarh","around the globe",33.43,-94.05
"1474","mcgaula","East Lansing MI/Chicago IL",41.7220679,-87.6248577
"1475","MXPulsoPolitico","México",23.634501,-102.552784
"1476","bxv_biophys","Sussex, England",45.4373941,-75.6990409
"1477","Lluvx","hole in the earth",38.7667882,-90.4722069
"1478","YrisNara","Goiânia",-16.6868982,-49.2648114
"1479","angelsofbottoms","Holmfirth, West Yorkshire",53.571744,-1.786292
"1481","Jlimary","San Juan, Puerto Rico",18.4655394,-66.1057355
"1482","_nnmxo","south london",51.5073509,-0.1277583
"1483","JessieSMorris","London, England",51.5073509,-0.1277583
"1484","pybaubry","Taipei",25.0329694,121.5654177
"1485","19dask85","Cuneo, Piedmont",44.3844766,7.5426711
"1486","marcvondiaz","Berlin Wedding ",52.5560732,13.338931
"1487","charmedneedle","Seattle, WA",47.6062095,-122.3320708
"1488","_doingallright","Deep Space",39.5169545,-104.7617256
"1489","drdengaterwuor","Cedar Falls, IA",42.5348993,-92.4453161
"1490","trym81","Rome, Lazio",41.9027835,12.4963655
"1491","Domenico_Marra","Milano, Lombardia",45.4642035,9.189982
"1492","LarrySa16379655","United States Minor Outlying I",19.2823192,166.647047
"1493","biorxivpreprint","New York",40.7127753,-74.0059728
"1494","AngieCurb","Argentina",-38.416097,-63.616672
"1495","las_saris","en el camino al fin",33.8859789,-118.3299516
"1496","BlueBandit_16","Rome",41.9027835,12.4963655
"1497","JYSchnaderMD","Norfolk, VA",36.8507689,-76.2858726
"1498","itsmeucunts","toronto",43.653226,-79.3831843
"1499","FormulaTorreon","Torreón, Coahuila de Zaragoza",25.5428443,-103.4067861
"1500","andreaventura01","Bologna",44.494887,11.3426162
"1501","wxnderwvll","Caserta, Campania",41.0854362,14.367553
"1502","TheTacticalDave","Corpus Christi, TX",27.8005828,-97.396381
"1503","partyjordan","San Francisco",37.7749295,-122.4194155
"1504","tsv100ya","Townsville, QLD, Australia",-19.2589635,146.8169483
"1505","6abc","Philadelphia",39.9525839,-75.1652215
"1506","bcastbloggers","NYC",40.7127753,-74.0059728
"1507","willtoresist","Proud to be Texan on the Front",31.9685988,-99.9018131
"1510","eldispensador","Salta, Argentina",-24.7821269,-65.4231976
"1511","Modupe_Liz","NIGERIA",9.081999,8.675277
"1512","DanimarieMorse","Michigan",44.3148443,-85.6023643
"1513","franpiace","Everywhere ",33.7589188,-84.3640829
"1514","AmmarAbdullahSh","KSA Makkah - SDN Khrtoom",21.3890824,39.8579118
"1515","amccullough519","Westerville, OH",40.1266689,-82.9318807
"1516","drjewilliams","Sarasota, FL",27.3364347,-82.5306527
"1517","luphorics","Los Angeles, CA",34.0522342,-118.2436849
"1519","TwitchDadTV","Australia",-25.274398,133.775136
"1520","Sandsnake__","Distrito Federal, México",19.4326077,-99.133208
"1521","Prof_Farmacia","Arese, Strada della Moia, 1",45.5373884,9.0847046
"1522","HospitalFIB","Guayaquil, Ecuador",-2.1709979,-79.9223592
"1523","SamHighsmith","Wilson, KS",38.8250106,-98.4753437
"1524","Mancuso_Mario","Napoli",36.3331041,-94.1790315
"1525","KayJayFIN","Finland",61.92411,25.7481511
"1526","Danhdrg","New York, USA",40.7127753,-74.0059728
"1527","Curiosandos","Italy",41.87194,12.56738
"1530","nssoaxaca","Oaxaca, México",17.0542297,-96.7132304
"1531","HaroldAndLoueh_","Alicante, Idris",38.3459963,-0.4906855
"1532","arcanoid70","Calabria, Italy",39.3087714,16.3463791
"1533","KofoJomo","Lagos, Nigeria",6.5243793,3.3792057
"1534","mohicks18","Columbus, OH",39.9611755,-82.9987942
"1536","KaelanRhy","Southern Ontario, Canada",43.2579685,-79.8671319
"1538","RosarioSibillo","Campania, Italy",41.1099473,14.8475139
"1539","Cillalapostej","Denmark",56.26392,9.501785
"1540","perrysmoschino","italy | <U+0001F3F3><U+FE0F><U+200D><U+0001F308>",41.87194,12.56738
"1541","csibeno","Manchester, England",53.4807593,-2.2426305
"1542","_deusetopper","Prudente de Morais, Brasil",-19.4752321,-44.1590819
"1543","AimeeBWrites","The Resistance.",44.9508411,-93.089851
"1544","tortahelada__","Lima, Peru",-12.0463731,-77.042754
"1545","VPello92","Piacenza, Emilia Romagna",45.0526206,9.6929845
"1546","samanthameelo","Manaus, Brasil",-3.1190275,-60.0217314
"1547","EmanueleFameli","Genoa",44.4056499,8.946256
"1548","DiarioRotativo","20.39049,-99.961456",20.3905428,-99.9613512
"1549","mandyssbc","Bethel, WA",47.4941559,-122.6300717
"1550","MichelleRafter","Portland, OR",45.5122308,-122.6587185
"1551","imagenpoblana","Puebla, México",19.0414398,-98.2062727
"1552","minvgigi","Sicily, Italy",37.5999938,14.0153557
"1553","pcyyunho","ve",37.0625,-95.677068
"1554","oscarmontani","Toscana",34.0541709,-118.463375
"1555","AskDeMarie","Orange County, California",33.7174708,-117.8311428
"1556","ninamoraless","Monterrey Nuevo Leon ",25.6866142,-100.3161126
"1557","elchiltepin","Hermosillo, Sonora",29.0729673,-110.9559192
"1558","lyssiebabyx","Wisconsin, USA",43.7844397,-88.7878678
"1559","lemellekh2","Grand Rapids, MI",42.9633599,-85.6680863
"1560","sheenakgraham","Jamaica",18.109581,-77.297508
"1561","Sugaarrbaby","Toronto, Ontario",43.653226,-79.3831843
"1563","Azzurra6671","Dublin, Ireland, Palermo, Sicilia, Trieste, Firenze, Prato",53.3498053,-6.2603097
"1564","AvisVolleyPt","Italia- Pistoia",43.9303475,10.9078587
"1565","MissGracey13","Distrito Federal, México",19.4326077,-99.133208
"1566","bibby74","Monterotondo, Lazio",42.0517785,12.6202874
"1567","8_Columnas","Estado de México",19.4968732,-99.7232673
"1568","yohane_enbot","Numazu-shi, Shizuoka",35.0955842,138.8634925
"1569","lasereb","Milan, Lombardy",45.4642035,9.189982
"1570","liderweb_mx","Nuevo Laredo, Tamaulipas",27.4779362,-99.549573
"1571","LadyDeibs","Somewhere near Pittsburgh, PA",40.4409777,-79.9857243
"1572","bamebams","Tebet, Jakarta",-6.2318597,106.8473377
"1574","Jenny_The_Girl","Denmark",56.26392,9.501785
"1575","alexa5313","Toscana, Italia",43.7710513,11.2486208
"1576","htrandreibl","Montemorelos, Nuevo León.",25.1889176,-99.8363028
"1578","RyanMorhard","Geneva, Switzerland",46.2043907,6.1431577
"1579","420lanie","Texas, USA",31.9685988,-99.9018131
"1580","ActualYucatan","Mérida, Yucatán, México",20.9673702,-89.5925857
"1581","rwjdingwall","United Kingdom",55.378051,-3.435973
"1582","sdfellis117","Minnesota",46.729553,-94.6858998
"1583","KaylaYax","Saturn",36.1583952,-95.9946482
"1584","hereforthejava","Seattle - Tacoma",47.4502499,-122.3088165
"1585","mala_influenza","Monterrey, N.L., Mexico",25.6866142,-100.3161126
"1586","pettydredful","Canada",56.130366,-106.346771
"1588","JamieMcSloy","England, United Kingdom",52.3555177,-1.1743197
"1589","PasqualeDeFalc1","Pavia, Lombardia",45.1847248,9.1582069
"1590","maxvoza","nato a Eboli (SA)",40.6182444,15.0546045
"1591","peddoc07","Bellevue, WA",47.6101497,-122.2015159
"1593","tlotre","Torino, Piemonte",45.0703393,7.686864
"1594","HyperPixie_","Lago Maggiore, Lombardia",45.9676218,8.6532586
"1595","DrGaganGrover","Chandigarh ",30.7333148,76.7794179
"1596","natadecio","ibiza ",39.0200099,1.4821482
"1597","AliQuqiiz","New York, USA <U+0001F1FA><U+0001F1F8>",40.7127753,-74.0059728
"1598","fabiusr","narni, italy",42.5176022,12.5156299
"1599","bathbombking","Peru, IL",41.3275349,-89.1289728
"1600","whitetrashart","Illinois, USA",40.6331249,-89.3985283
"1601","gl4w1992","Maceio-AL / Brazil",-9.6498487,-35.7089492
"1602","OfficialFGTNews","india",20.593684,78.96288
"1603","BioProfBarker","Madison, NJ",40.7598227,-74.417097
"1604","michelelate","Washington, DC",38.9071923,-77.0368707
"1605","orsomik","Pioltello Milan, Italy",45.489622,9.3261186
"1606","CypressFestival","5700 Orange, Cypress CA 90630",33.8223721,-118.0337487
"1607","AnupSubedee","Nepal",28.394857,84.124008
"1608","UN1ONJal","Guadalajara, México",20.6596988,-103.3496092
"1609","zaph0d42","NYC",40.7127753,-74.0059728
"1610","TomboxaneA2","Cambridge, UK",52.205337,0.121817
"1611","gopal_benoy","Kolkata, India",22.572646,88.363895
"1612","TotoChiaramonte","CGIL",43.713787,-79.4540805
"1613","fiona779","Munich",48.1351253,11.5819805
"1614","s_suesty","Indonesia",-0.789275,113.921327
"1615","lilmikmac","Spearfish, SD",44.4908172,-103.8593697
"1616","CiaoLapo","Prato, Italy",43.8777049,11.102228
"1617","Leonard71089862","Firenze ",43.7695604,11.2558136
"1618","wahyunh_","Yogyakarta",-7.7955798,110.3694896
"1619","ImaanHealthcare","Nationwide, UK",36.107179,-94.145075
"1620","tibi86","Genova",35.609611,-82.568876
"1621","MyangelMT","Mark’s heart",40.6859264,-111.8570638
"1622","Plumbobbit","Europe",54.5259614,15.2551187
"1624","profvrr","New York, USA",40.7127753,-74.0059728
"1625","SabotagedFool2","Penkridge, Staffordshire, UK",52.725155,-2.116372
"1626","_akashahismail","George Town, Pinang",5.4356367,100.3091
"1628","marytheluckyone","Finland",61.92411,25.7481511
"1629","ovinodagiardino","Uzbekistan",41.377491,64.585262
"1630","AChVoice","Singapore",1.352083,103.819836
"1631","jillkthompson","Casper, WY",42.8500769,-106.3251749
"1632","NPF","Headquartered in Portland, OR",45.478976,-122.619744
"1633","kevinwidgo","Cilacap / Jawa Tengah",-7.6982991,109.023521
"1634","kingzajn","Upper East Side,, sicilia<U+0001F4AB>",40.7735649,-73.9565551
"1635","comunitadidio","Switzerland",46.818188,8.227512
"1636","consumatori","Italy",41.87194,12.56738
"1637","laptamy","Sumatera Selatan",-3.3194374,103.914399
"1638","caminorealmedia","New Mexico, USA",34.5199402,-105.8700901
"1639","prchovanec","New York, NY",40.7127753,-74.0059728
"1640","Jdabanchpena","Chile",-35.675147,-71.542969
"1641","Javihilde","Chiclayo, Peru",-6.7765974,-79.8442978
"1642","AdaOhafia","Lagos, Nigeria",6.5243793,3.3792057
"1643","Brainswiffer"," Bern",46.9479739,7.4474468
"1644","marlikesart","Italy",41.87194,12.56738
"1645","menshokunin_Xi","<U+65E5><U+672C> <U+5927><U+962A>",34.6937378,135.5021651
"1646","Profernandoliga","Guarulhos, Brasil",-23.4543395,-46.5336678
"1647","Eurosurveillanc","Stockholm, Sweden",59.3293235,18.0685808
"1648","JannieNH","Hvidovre, Denmark",55.642522,12.4753859
"1650","thatsntmyage","London.",51.5073509,-0.1277583
"1651","Marco_dreams","Lombardia, Italia",45.4790671,9.8452433
"1652","22Alex87JUVE","Palermo, Sicily",38.11569,13.3614868
"1653","KennyTheGhul","Berlin, Germany",52.5200066,13.404954
"1655","AlineSupreme","Florence",43.7695604,11.2558136
"1656","lado_mx","Mexico",23.634501,-102.552784
"1657","razorblack66","rapallo",44.3498211,9.2338889
"1658","misty_wind","Japan",36.204824,138.252924
"1659","yukifurunomichi","<U+5C71><U+53E3> <U+5C71><U+53E3><U+5E02>",34.178496,131.4737269
"1660","atavrtshkespear","Mersin, Türkiye",36.8121041,34.6414811
"1661","fredvries","Harlingen",26.1906306,-97.6961026
"1663","linkie16","+62 31",62.1946432,31.1682843
"1664","Wicklewon","Upton, West Yorkshire.",53.613499,-1.286148
"1665","ivan_toby","Sondrio, Lombardia",46.1698583,9.8787674
"1666","humneet06","Canada",56.130366,-106.346771
"1667","apeykins","Halifax, NS",44.6487635,-63.5752387
"1668","nclexpharm","Minnesota, USA",46.729553,-94.6858998
"1669","Cobretti_80","italia",41.87194,12.56738
"1670","evolvenza","Rome, Italy",41.9027835,12.4963655
"1671","mamaru0911","<U+6771><U+4EAC>",35.7090259,139.7319925
"1672","24karatchocolat","Pallet Town",42.589978,-87.877604
"1673","Johnnyyxx","Julia Augusta Taurinorum",45.0703393,7.686864
"1674","v4lentinatweets","Lombardia, Italia",45.4790671,9.8452433
"1676","RoePipi","Nagykanizsa, Hungary",46.4590218,16.9896796
"1678","anjulinursinghm","Faridabad, India",28.4089123,77.3177894
"1680","Nounsso","Abuja, Nigeria",9.0764785,7.398574
"1681","ADTsaousis","Canterbury, Kent",51.280233,1.0789089
"1682","academorosario","davoli",38.6491651,16.4857439
